address,Name,id,lat,lng,location,subCategory,details,reviews
,Yellow Bone Crib Yani,26351,52.377218,4.805909,Amsterdam,African Restaurant,http://tour-pedia.org/api/getPlaceDetails?id=26351,http://tour-pedia.org/api/getReviewsByPlaceId?placeId=26351
,poidude's,26258,52.350923,4.784998,Amsterdam,African Restaurant,http://tour-pedia.org/api/getPlaceDetails?id=26258,http://tour-pedia.org/api/getReviewsByPlaceId?placeId=26258
,Elza's Huisje,28312,52.38777923584,4.9888777732849,Amsterdam,African Restaurant,http://tour-pedia.org/api/getPlaceDetails?id=28312,http://tour-pedia.org/api/getReviewsByPlaceId?placeId=28312
Spaarndammerdijk 302,Art Café Amsterdam,26937,52.392827,4.868765,Amsterdam,African Restaurant,http://tour-pedia.org/api/getPlaceDetails?id=26937,http://tour-pedia.org/api/getReviewsByPlaceId?placeId=26937
Amsterdam RAI,The Beach @ IBC 2013,27526,52.341385738539,4.8864259875077,Amsterdam,American Restaurant,http://tour-pedia.org/api/getPlaceDetails?id=27526,http://tour-pedia.org/api/getReviewsByPlaceId?placeId=27526
,T Pakhuis,27214,52.393066145076,4.8813717859266,Amsterdam,American Restaurant,http://tour-pedia.org/api/getPlaceDetails?id=27214,http://tour-pedia.org/api/getReviewsByPlaceId?placeId=27214
Subang Parade,Fridays,26634,52.385501,4.8377784,Amsterdam,American Restaurant,http://tour-pedia.org/api/getPlaceDetails?id=26634,http://tour-pedia.org/api/getReviewsByPlaceId?placeId=26634
,Net buiten schoolplein,26420,52.354306,4.806161,Amsterdam,Arepa Restaurant,http://tour-pedia.org/api/getPlaceDetails?id=26420,http://tour-pedia.org/api/getReviewsByPlaceId?placeId=26420
,Andrew's Coffeshop & Lounge,26877,52.369485,4.865914,Amsterdam,Arepa Restaurant,http://tour-pedia.org/api/getPlaceDetails?id=26877,http://tour-pedia.org/api/getReviewsByPlaceId?placeId=26877
Martelaarsgracht 8,Flame Grill Restaurant,27598,52.37778786591,4.8966275447501,Amsterdam,Argentinian Restaurant,http://tour-pedia.org/api/getPlaceDetails?id=27598,http://tour-pedia.org/api/getReviewsByPlaceId?placeId=27598
Damstraat 5,CAU,27375,52.372495,4.894477,Amsterdam,Argentinian Restaurant,http://tour-pedia.org/api/getPlaceDetails?id=27375,http://tour-pedia.org/api/getReviewsByPlaceId?placeId=27375
,Buffalo Steakhouse,27528,52.345075338858,4.8908715114466,Amsterdam,Argentinian Restaurant,http://tour-pedia.org/api/getPlaceDetails?id=27528,http://tour-pedia.org/api/getReviewsByPlaceId?placeId=27528
Damstraat 34,Argentinos-Barberelli Grill,27385,52.37207468044,4.895293917628,Amsterdam,Argentinian Restaurant,http://tour-pedia.org/api/getPlaceDetails?id=27385,http://tour-pedia.org/api/getReviewsByPlaceId?placeId=27385
Rozengracht 5,Argentijns Restaurant Amigo,27117,52.373854983358,4.8823100820944,Amsterdam,Argentinian Restaurant,http://tour-pedia.org/api/getPlaceDetails?id=27117,http://tour-pedia.org/api/getReviewsByPlaceId?placeId=27117
,Yogja indonesisch restaurant,26537,52.348417987741,4.8243743751822,Amsterdam,Asian Restaurant,http://tour-pedia.org/api/getPlaceDetails?id=26537,http://tour-pedia.org/api/getReviewsByPlaceId?placeId=26537
Spaardammerstraat 91 A,Yayang Traiteur,27212,52.390111075169,4.8788952827454,Amsterdam,Asian Restaurant,http://tour-pedia.org/api/getPlaceDetails?id=27212,http://tour-pedia.org/api/getReviewsByPlaceId?placeId=27212
Kolksteeg 8,Wok To Walk,27715,52.376184,4.895251,Amsterdam,Asian Restaurant,http://tour-pedia.org/api/getPlaceDetails?id=27715,http://tour-pedia.org/api/getReviewsByPlaceId?placeId=27715
Van Leijenberghlaan 116,Warung Celebes,27189,52.331477574647,4.8783159255981,Amsterdam,Asian Restaurant,http://tour-pedia.org/api/getPlaceDetails?id=27189,http://tour-pedia.org/api/getReviewsByPlaceId?placeId=27189
Hoofddorpplein 9,Toko Sinar Mas,26711,52.351106,4.850174,Amsterdam,Asian Restaurant,http://tour-pedia.org/api/getPlaceDetails?id=26711,http://tour-pedia.org/api/getReviewsByPlaceId?placeId=26711
Pieter Calandlaan 333-336,Toko Bandung,26404,52.354315536599,4.8107118932637,Amsterdam,Asian Restaurant,http://tour-pedia.org/api/getPlaceDetails?id=26404,http://tour-pedia.org/api/getReviewsByPlaceId?placeId=26404
Buikslotermeerplein 63,Tjon Express,27914,52.400161593351,4.9357545044798,Amsterdam,Asian Restaurant,http://tour-pedia.org/api/getPlaceDetails?id=27914,http://tour-pedia.org/api/getReviewsByPlaceId?placeId=27914
Olympiaplein 176,The Red Sun,26902,52.346262666283,4.8669557188299,Amsterdam,Asian Restaurant,http://tour-pedia.org/api/getPlaceDetails?id=26902,http://tour-pedia.org/api/getReviewsByPlaceId?placeId=26902
Beukenplein 10/HS,Thaicoon,27752,52.357202768326,4.918021,Amsterdam,Asian Restaurant,http://tour-pedia.org/api/getPlaceDetails?id=27752,http://tour-pedia.org/api/getReviewsByPlaceId?placeId=27752
Admiraal de Ruyterweg 334,Snackbar Desiree,26846,52.380913496017,4.854361,Amsterdam,Asian Restaurant,http://tour-pedia.org/api/getPlaceDetails?id=26846,http://tour-pedia.org/api/getReviewsByPlaceId?placeId=26846
Novotel Amsterdam City,Shoyu,27329,52.333578,4.888735,Amsterdam,Asian Restaurant,http://tour-pedia.org/api/getPlaceDetails?id=27329,http://tour-pedia.org/api/getReviewsByPlaceId?placeId=27329
A.J. Ernststraat 589A,Oriental Restaurant Ruby,27554,52.332012445732,4.8769823768055,Amsterdam,Asian Restaurant,http://tour-pedia.org/api/getPlaceDetails?id=27554,http://tour-pedia.org/api/getReviewsByPlaceId?placeId=27554
,Opa En Oma De Vries,27665,52.328240167026,4.8893089794587,Amsterdam,Asian Restaurant,http://tour-pedia.org/api/getPlaceDetails?id=27665,http://tour-pedia.org/api/getReviewsByPlaceId?placeId=27665
,Nasi Goreng HQ,28187,52.390449,4.947881,Amsterdam,Asian Restaurant,http://tour-pedia.org/api/getPlaceDetails?id=28187,http://tour-pedia.org/api/getReviewsByPlaceId?placeId=28187
Orlyplein 105,Mr. Long,26567,52.388873636664,4.8388545632632,Amsterdam,Asian Restaurant,http://tour-pedia.org/api/getPlaceDetails?id=26567,http://tour-pedia.org/api/getReviewsByPlaceId?placeId=26567
,Mr Long Asian Food,26570,52.388961796877,4.8389578097179,Amsterdam,Asian Restaurant,http://tour-pedia.org/api/getPlaceDetails?id=26570,http://tour-pedia.org/api/getReviewsByPlaceId?placeId=26570
Hobbemastraat 1,MOMO,27144,52.361667,4.882462,Amsterdam,Asian Restaurant,http://tour-pedia.org/api/getPlaceDetails?id=27144,http://tour-pedia.org/api/getReviewsByPlaceId?placeId=27144
Buitenveldertselaan 158A,MiKa,27048,52.32559130339,4.8682059962354,Amsterdam,Asian Restaurant,http://tour-pedia.org/api/getPlaceDetails?id=27048,http://tour-pedia.org/api/getReviewsByPlaceId?placeId=27048
,Mchi,26153,52.354060873366,4.9978353949458,Amsterdam,Asian Restaurant,http://tour-pedia.org/api/getPlaceDetails?id=26153,http://tour-pedia.org/api/getReviewsByPlaceId?placeId=26153
Osdorper Ban 56,Little Dragon,26314,52.362572234702,4.7993478752986,Amsterdam,Asian Restaurant,http://tour-pedia.org/api/getPlaceDetails?id=26314,http://tour-pedia.org/api/getReviewsByPlaceId?placeId=26314
,Ken&Har,26181,52.353369766667,4.9960782666667,Amsterdam,Asian Restaurant,http://tour-pedia.org/api/getPlaceDetails?id=26181,http://tour-pedia.org/api/getReviewsByPlaceId?placeId=26181
Linnaeuskade 2,Kediri Indonesische Traiteur,28149,52.355346679688,4.928691,Amsterdam,Asian Restaurant,http://tour-pedia.org/api/getPlaceDetails?id=28149,http://tour-pedia.org/api/getReviewsByPlaceId?placeId=28149
Albert Cuypstraat 2-6,IZAKAYA,27297,52.354628547184,4.8872267703035,Amsterdam,Asian Restaurant,http://tour-pedia.org/api/getPlaceDetails?id=27297,http://tour-pedia.org/api/getReviewsByPlaceId?placeId=27297
Rijnstraat 51,Indonesian Malaysian Restaurant,27905,52.346946,4.905037,Amsterdam,Asian Restaurant,http://tour-pedia.org/api/getPlaceDetails?id=27905,http://tour-pedia.org/api/getReviewsByPlaceId?placeId=27905
,Hot Mama Hot,28008,52.340134902446,4.9101621119949,Amsterdam,Asian Restaurant,http://tour-pedia.org/api/getPlaceDetails?id=28008,http://tour-pedia.org/api/getReviewsByPlaceId?placeId=28008
,Flavours of singapore,26373,52.3537847,4.8047602,Amsterdam,Asian Restaurant,http://tour-pedia.org/api/getPlaceDetails?id=26373,http://tour-pedia.org/api/getReviewsByPlaceId?placeId=26373
,"Chieh,Sab & Kian",27668,52.331455,4.888922,Amsterdam,Asian Restaurant,http://tour-pedia.org/api/getPlaceDetails?id=27668,http://tour-pedia.org/api/getReviewsByPlaceId?placeId=27668
,Buma,26417,52.351970829272,4.8091537194708,Amsterdam,Asian Restaurant,http://tour-pedia.org/api/getPlaceDetails?id=26417,http://tour-pedia.org/api/getReviewsByPlaceId?placeId=26417
Johan Huizingalaan 116-118,Asian Taste Restaurant,26464,52.36086944585,4.8270502069239,Amsterdam,Asian Restaurant,http://tour-pedia.org/api/getPlaceDetails?id=26464,http://tour-pedia.org/api/getReviewsByPlaceId?placeId=26464
Osdorpplein 669,Asian Delight,26367,52.359151,4.805999,Amsterdam,Asian Restaurant,http://tour-pedia.org/api/getPlaceDetails?id=26367,http://tour-pedia.org/api/getReviewsByPlaceId?placeId=26367
,Flashpoint,26590,52.359151043872,4.8340068563054,Amsterdam,Australian Restaurant,http://tour-pedia.org/api/getPlaceDetails?id=26590,http://tour-pedia.org/api/getReviewsByPlaceId?placeId=26590
Jodenbreestraat 15,Tony's NYC Bagel,27852,52.36894,4.902722,Amsterdam,Bagel Shop,http://tour-pedia.org/api/getPlaceDetails?id=27852,http://tour-pedia.org/api/getReviewsByPlaceId?placeId=27852
,Smooth & Tasty,26605,52.353208,4.840562,Amsterdam,Bagel Shop,http://tour-pedia.org/api/getPlaceDetails?id=26605,http://tour-pedia.org/api/getReviewsByPlaceId?placeId=26605
,Simit Sarayı Amsterdam,26869,52.365746407242,4.8661370400636,Amsterdam,Bagel Shop,http://tour-pedia.org/api/getPlaceDetails?id=26869,http://tour-pedia.org/api/getReviewsByPlaceId?placeId=26869
"Kinkerstraat 224173,No: 224/1053 EM",Simit Sarayı,26999,52.366068237517,4.8681449890137,Amsterdam,Bagel Shop,http://tour-pedia.org/api/getPlaceDetails?id=26999,http://tour-pedia.org/api/getReviewsByPlaceId?placeId=26999
Molenwijk,oliebollenkraam,27335,52.417331695557,4.8942608833313,Amsterdam,Bagel Shop,http://tour-pedia.org/api/getPlaceDetails?id=27335,http://tour-pedia.org/api/getReviewsByPlaceId?placeId=27335
Bos en Lommerweg 333,Bagels & Beans,26652,52.378227751748,4.8482957414422,Amsterdam,Bagel Shop,http://tour-pedia.org/api/getPlaceDetails?id=26652,http://tour-pedia.org/api/getReviewsByPlaceId?placeId=26652
Gerard Brandtstraat,Bagels & Beans,27002,52.361065933048,4.8677554898116,Amsterdam,Bagel Shop,http://tour-pedia.org/api/getPlaceDetails?id=27002,http://tour-pedia.org/api/getReviewsByPlaceId?placeId=27002
Parnassusweg 218,Bagels & Beans,27018,52.341582969905,4.8679813742638,Amsterdam,Bagel Shop,http://tour-pedia.org/api/getPlaceDetails?id=27018,http://tour-pedia.org/api/getReviewsByPlaceId?placeId=27018
Van Hallstraat 613,Bagels & Beans,26975,52.379611,4.871863,Amsterdam,Bagel Shop,http://tour-pedia.org/api/getPlaceDetails?id=26975,http://tour-pedia.org/api/getReviewsByPlaceId?placeId=26975
,Bagels & Beans,27876,52.364072153982,4.9108879567385,Amsterdam,Bagel Shop,http://tour-pedia.org/api/getPlaceDetails?id=27876,http://tour-pedia.org/api/getReviewsByPlaceId?placeId=27876
Pernassusweg,Bagels & Beans,27779,52.340607476738,4.9208296927943,Amsterdam,Bagel Shop,http://tour-pedia.org/api/getPlaceDetails?id=27779,http://tour-pedia.org/api/getReviewsByPlaceId?placeId=27779
Zonnbeplein,Warme Bakker Zonneplein,26935,52.418506518982,4.8712610423179,Amsterdam,Bakery,http://tour-pedia.org/api/getPlaceDetails?id=26935,http://tour-pedia.org/api/getReviewsByPlaceId?placeId=26935
Middenweg 47,Warme Bakker Balvert,28087,52.3542641,4.929762,Amsterdam,Bakery,http://tour-pedia.org/api/getPlaceDetails?id=28087,http://tour-pedia.org/api/getReviewsByPlaceId?placeId=28087
Buikslotermeerplein,Vlaamsch Broodhuys,27930,52.399617187515,4.935564994812,Amsterdam,Bakery,http://tour-pedia.org/api/getPlaceDetails?id=27930,http://tour-pedia.org/api/getReviewsByPlaceId?placeId=27930
"Joris Ivensplein, 1087 Zeeburg",Vinny's Bakery,26162,52.358295427796,4.9902251898939,Amsterdam,Bakery,http://tour-pedia.org/api/getPlaceDetails?id=26162,http://tour-pedia.org/api/getReviewsByPlaceId?placeId=26162
Buitenveldertselaan 40,Van Schaik,27043,52.331069756092,4.868572958246,Amsterdam,Bakery,http://tour-pedia.org/api/getPlaceDetails?id=27043,http://tour-pedia.org/api/getReviewsByPlaceId?placeId=27043
,Türkiyem Firini,26303,52.376902,4.8006,Amsterdam,Bakery,http://tour-pedia.org/api/getPlaceDetails?id=26303,http://tour-pedia.org/api/getReviewsByPlaceId?placeId=26303
Wilgenweg 20,Taverna,27584,52.390397359463,4.9051759196253,Amsterdam,Bakery,http://tour-pedia.org/api/getPlaceDetails?id=27584,http://tour-pedia.org/api/getReviewsByPlaceId?placeId=27584
"Jarmuiden 20, 1046 Westpoort",speciciaalbakker Nol Bertam,26271,52.390892198206,4.7898866834519,Amsterdam,Bakery,http://tour-pedia.org/api/getPlaceDetails?id=26271,http://tour-pedia.org/api/getReviewsByPlaceId?placeId=26271
Bos en Lommerweg 285,Speciaalbakker Nol Bertram,26669,52.378628930859,4.8496414991302,Amsterdam,Bakery,http://tour-pedia.org/api/getPlaceDetails?id=26669,http://tour-pedia.org/api/getReviewsByPlaceId?placeId=26669
Rijnstraat 61,Remko's Brood en Taartjes,27902,52.345905656265,4.9056100845337,Amsterdam,Bakery,http://tour-pedia.org/api/getPlaceDetails?id=27902,http://tour-pedia.org/api/getReviewsByPlaceId?placeId=27902
"Buikslotermeerplein 152, 1025 Amsterdam",Patisserie Kwekkeboom BovenIJ,27927,52.397824280136,4.9374218283155,Amsterdam,Bakery,http://tour-pedia.org/api/getPlaceDetails?id=27927,http://tour-pedia.org/api/getReviewsByPlaceId?placeId=27927
Linnaeusstraat 80-86,Patisserie Kwekkeboom,28153,52.356458,4.927332,Amsterdam,Bakery,http://tour-pedia.org/api/getPlaceDetails?id=28153,http://tour-pedia.org/api/getReviewsByPlaceId?placeId=28153
,Pancake restaurant Rozen gracht  amsterdam,26631,52.387934130938,4.8373255055888,Amsterdam,Bakery,http://tour-pedia.org/api/getPlaceDetails?id=26631,http://tour-pedia.org/api/getReviewsByPlaceId?placeId=26631
,Özkaradeniz,27704,52.383778,4.913356,Amsterdam,Bakery,http://tour-pedia.org/api/getPlaceDetails?id=27704,http://tour-pedia.org/api/getReviewsByPlaceId?placeId=27704
Osdorper Ban 32,Osdorp Bakkerij,26316,52.362129,4.800549,Amsterdam,Bakery,http://tour-pedia.org/api/getPlaceDetails?id=26316,http://tour-pedia.org/api/getReviewsByPlaceId?placeId=26316
Ruys de Beerenbrouckstraat 123,Mega Bakkerij,26297,52.38236101554,4.8025067509199,Amsterdam,Bakery,http://tour-pedia.org/api/getPlaceDetails?id=26297,http://tour-pedia.org/api/getReviewsByPlaceId?placeId=26297
Science Park 408,Meet&Eat,28277,52.35624,4.957938,Amsterdam,Bakery,http://tour-pedia.org/api/getPlaceDetails?id=28277,http://tour-pedia.org/api/getReviewsByPlaceId?placeId=28277
,Marokkaanse bakkerij osdorp,26322,52.355275612636,4.7969193919762,Amsterdam,Bakery,http://tour-pedia.org/api/getPlaceDetails?id=26322,http://tour-pedia.org/api/getReviewsByPlaceId?placeId=26322
Burgemeester Vlugtlaan 208,Makara Amsterdam,26392,52.38105492032,4.8202967113014,Amsterdam,Bakery,http://tour-pedia.org/api/getPlaceDetails?id=26392,http://tour-pedia.org/api/getReviewsByPlaceId?placeId=26392
Burgemeester Vlugtlaan 208,Makara Amsterdam,26391,52.381761805213,4.8207183981046,Amsterdam,Bakery,http://tour-pedia.org/api/getPlaceDetails?id=26391,http://tour-pedia.org/api/getReviewsByPlaceId?placeId=26391
,Lekkere dingen bakker oostzaan,27336,52.421622117874,4.8975821496468,Amsterdam,Bakery,http://tour-pedia.org/api/getPlaceDetails?id=27336,http://tour-pedia.org/api/getReviewsByPlaceId?placeId=27336
Mercuriusplein 6,Lekkere Dingen Bakker,27051,52.417986,4.878247,Amsterdam,Bakery,http://tour-pedia.org/api/getPlaceDetails?id=27051,http://tour-pedia.org/api/getReviewsByPlaceId?placeId=27051
Ankerplaats,Lekkere Dingen Bakker,27679,52.402535022653,4.9166598716011,Amsterdam,Bakery,http://tour-pedia.org/api/getPlaceDetails?id=27679,http://tour-pedia.org/api/getReviewsByPlaceId?placeId=27679
Orlyplein,Le Perron,26560,52.388225321927,4.8372888565063,Amsterdam,Bakery,http://tour-pedia.org/api/getPlaceDetails?id=26560,http://tour-pedia.org/api/getReviewsByPlaceId?placeId=26560
Buikslotermeerplein,Le Perron,27921,52.399787388497,4.9352431297302,Amsterdam,Bakery,http://tour-pedia.org/api/getPlaceDetails?id=27921,http://tour-pedia.org/api/getReviewsByPlaceId?placeId=27921
Beethovenstraat 56,Le Pain Quotidien (Beethovenstraat),27152,52.348310247112,4.8771132530201,Amsterdam,Bakery,http://tour-pedia.org/api/getPlaceDetails?id=27152,http://tour-pedia.org/api/getReviewsByPlaceId?placeId=27152
Olympiaplein 119,Le Fournil de Sébastien,26896,52.346505,4.867787,Amsterdam,Bakery,http://tour-pedia.org/api/getPlaceDetails?id=26896,http://tour-pedia.org/api/getReviewsByPlaceId?placeId=26896
,hulleman Bakkerij,26409,52.345509949222,4.8120227199124,Amsterdam,Bakery,http://tour-pedia.org/api/getPlaceDetails?id=26409,http://tour-pedia.org/api/getReviewsByPlaceId?placeId=26409
,Groothuis de echte bakker,26969,52.384017,4.8753762245178,Amsterdam,Bakery,http://tour-pedia.org/api/getPlaceDetails?id=26969,http://tour-pedia.org/api/getReviewsByPlaceId?placeId=26969
,Gary's home-baked products,26933,52.415168762207,4.8717684745789,Amsterdam,Bakery,http://tour-pedia.org/api/getPlaceDetails?id=26933,http://tour-pedia.org/api/getReviewsByPlaceId?placeId=26933
,Dutch Bakery,26305,52.380132,4.803472,Amsterdam,Bakery,http://tour-pedia.org/api/getPlaceDetails?id=26305,http://tour-pedia.org/api/getReviewsByPlaceId?placeId=26305
,Delifrance Esso,27672,52.332750755994,4.9118809346537,Amsterdam,Bakery,http://tour-pedia.org/api/getPlaceDetails?id=27672,http://tour-pedia.org/api/getReviewsByPlaceId?placeId=27672
Brinkstraat157,De Lekkernij,28110,52.340475194066,4.9432172414399,Amsterdam,Bakery,http://tour-pedia.org/api/getPlaceDetails?id=28110,http://tour-pedia.org/api/getReviewsByPlaceId?placeId=28110
Winkelcentrum Molenwijk,de lekkere dingen bakker,27333,52.417694054981,4.8929616786031,Amsterdam,Bakery,http://tour-pedia.org/api/getPlaceDetails?id=27333,http://tour-pedia.org/api/getReviewsByPlaceId?placeId=27333
Waterlandplein,De lekkere dingen bakker,28194,52.389621734619,4.955463886261,Amsterdam,Bakery,http://tour-pedia.org/api/getPlaceDetails?id=28194,http://tour-pedia.org/api/getReviewsByPlaceId?placeId=28194
Christiaan Huygensplein 35,De Broodhoek,28170,52.349676295088,4.9388005581329,Amsterdam,Bakery,http://tour-pedia.org/api/getPlaceDetails?id=28170,http://tour-pedia.org/api/getReviewsByPlaceId?placeId=28170
Magneetstraat,De Bijenkorf Centrale Bakkerij,26740,52.390102172005,4.8550010297908,Amsterdam,Bakery,http://tour-pedia.org/api/getPlaceDetails?id=26740,http://tour-pedia.org/api/getReviewsByPlaceId?placeId=26740
Osdorperban,Cesme warme bakker,26354,52.36291,4.801444,Amsterdam,Bakery,http://tour-pedia.org/api/getPlaceDetails?id=26354,http://tour-pedia.org/api/getReviewsByPlaceId?placeId=26354
Calandlaan 85,Broodje Caland,26594,52.356259866667,4.828138,Amsterdam,Bakery,http://tour-pedia.org/api/getPlaceDetails?id=26594,http://tour-pedia.org/api/getReviewsByPlaceId?placeId=26594
Albert Cuypstraat 78,Broodbakker Simon Meyssen,27312,52.35505355696,4.8907005790836,Amsterdam,Bakery,http://tour-pedia.org/api/getPlaceDetails?id=27312,http://tour-pedia.org/api/getReviewsByPlaceId?placeId=27312
,Brood,27458,52.396312713623,4.9011573791504,Amsterdam,Bakery,http://tour-pedia.org/api/getPlaceDetails?id=27458,http://tour-pedia.org/api/getReviewsByPlaceId?placeId=27458
Kastelenstraat 171,Bötcher's Broodboetiek,27552,52.326062,4.875321,Amsterdam,Bakery,http://tour-pedia.org/api/getPlaceDetails?id=27552,http://tour-pedia.org/api/getReviewsByPlaceId?placeId=27552
Contactweg,Bolletje Brood,26837,52.389871075078,4.8561863263344,Amsterdam,Bakery,http://tour-pedia.org/api/getPlaceDetails?id=26837,http://tour-pedia.org/api/getReviewsByPlaceId?placeId=26837
Maasstraat 82-84,Bertram & Brood - Maasstraat,27661,52.34470991,4.89531,Amsterdam,Bakery,http://tour-pedia.org/api/getPlaceDetails?id=27661,http://tour-pedia.org/api/getReviewsByPlaceId?placeId=27661
Cornelis Schuytstraat 36-40,Bertram & Brood - Cornelis Schuytstraat,27013,52.354807698609,4.8714588014462,Amsterdam,Bakery,http://tour-pedia.org/api/getPlaceDetails?id=27013,http://tour-pedia.org/api/getReviewsByPlaceId?placeId=27013
Tussen meer 75,Bertram & brood,26325,52.35848,4.800958,Amsterdam,Bakery,http://tour-pedia.org/api/getPlaceDetails?id=26325,http://tour-pedia.org/api/getReviewsByPlaceId?placeId=26325
Sierplein 51,Bertram & Brood,26522,52.355089253332,4.8264442066071,Amsterdam,Bakery,http://tour-pedia.org/api/getPlaceDetails?id=26522,http://tour-pedia.org/api/getReviewsByPlaceId?placeId=26522
Burgemeester De Vlugtlaan,Bermo Bakkerij,26504,52.379345484429,4.8328256607056,Amsterdam,Bakery,http://tour-pedia.org/api/getPlaceDetails?id=26504,http://tour-pedia.org/api/getReviewsByPlaceId?placeId=26504
Ms. van Riemsdijkweg 30,BBrood & Koffie,27206,52.401098398431,4.8918201059073,Amsterdam,Bakery,http://tour-pedia.org/api/getPlaceDetails?id=27206,http://tour-pedia.org/api/getReviewsByPlaceId?placeId=27206
Buikslotermeerplein 112,Banketbakkerij Van Gerven,27938,52.398569782407,4.9354791641235,Amsterdam,Bakery,http://tour-pedia.org/api/getPlaceDetails?id=27938,http://tour-pedia.org/api/getReviewsByPlaceId?placeId=27938
Mosplein 20,Banketbakkerij D. Gerlofsma,27806,52.394740020771,4.91660408969,Amsterdam,Bakery,http://tour-pedia.org/api/getPlaceDetails?id=27806,http://tour-pedia.org/api/getReviewsByPlaceId?placeId=27806
,Banket Bakkerij Roetman,26312,52.362112923767,4.7945050788837,Amsterdam,Bakery,http://tour-pedia.org/api/getPlaceDetails?id=26312,http://tour-pedia.org/api/getReviewsByPlaceId?placeId=26312
Buitenveldertselaan 178,Bakkerij Van Muyden,27445,52.325015374367,4.8689632042558,Amsterdam,Bakery,http://tour-pedia.org/api/getPlaceDetails?id=27445,http://tour-pedia.org/api/getReviewsByPlaceId?placeId=27445
,Bakkerij Turkiyem,26374,52.35812022861,4.8053696201869,Amsterdam,Bakery,http://tour-pedia.org/api/getPlaceDetails?id=26374,http://tour-pedia.org/api/getReviewsByPlaceId?placeId=26374
Nieuwendammerdijk 4,Bakkerij Sjoerd van Willes,27816,52.39089678191,4.9255657196045,Amsterdam,Bakery,http://tour-pedia.org/api/getPlaceDetails?id=27816,http://tour-pedia.org/api/getReviewsByPlaceId?placeId=27816
,Bakkerij Saray,28156,52.36388,4.9385368824005,Amsterdam,Bakery,http://tour-pedia.org/api/getPlaceDetails?id=28156,http://tour-pedia.org/api/getReviewsByPlaceId?placeId=28156
Omval,Bakkerij Renzema,27786,52.344475607577,4.9148023788423,Amsterdam,Bakery,http://tour-pedia.org/api/getPlaceDetails?id=27786,http://tour-pedia.org/api/getReviewsByPlaceId?placeId=27786
Theresiastraat 34,Bakkerij Oranje,26411,52.345446963643,4.8117787823938,Amsterdam,Bakery,http://tour-pedia.org/api/getPlaceDetails?id=26411,http://tour-pedia.org/api/getReviewsByPlaceId?placeId=26411
Molukkenstraat,Bakkerij Oost,28154,52.359893132706,4.9397218090159,Amsterdam,Bakery,http://tour-pedia.org/api/getPlaceDetails?id=28154,http://tour-pedia.org/api/getReviewsByPlaceId?placeId=28154
Pampuslaan 20,Bakkerij Lia,26193,52.351633173257,5.0065755823876,Amsterdam,Bakery,http://tour-pedia.org/api/getPlaceDetails?id=26193,http://tour-pedia.org/api/getReviewsByPlaceId?placeId=26193
,Bakkerij Kuiper,27334,52.417537,4.892752,Amsterdam,Bakery,http://tour-pedia.org/api/getPlaceDetails?id=27334,http://tour-pedia.org/api/getReviewsByPlaceId?placeId=27334
Amstelveenseweg,Bakkerij Klopper & Stolk,26835,52.341446240885,4.85686690558,Amsterdam,Bakery,http://tour-pedia.org/api/getPlaceDetails?id=26835,http://tour-pedia.org/api/getReviewsByPlaceId?placeId=26835
Spaarndammerstraat,Bakkerij Kees Gutter,27082,52.390806,4.87847,Amsterdam,Bakery,http://tour-pedia.org/api/getPlaceDetails?id=27082,http://tour-pedia.org/api/getReviewsByPlaceId?placeId=27082
Purmerplein,Bakkerij Kees Gutter,28018,52.391490963344,4.9442982673645,Amsterdam,Bakery,http://tour-pedia.org/api/getPlaceDetails?id=28018,http://tour-pedia.org/api/getReviewsByPlaceId?placeId=28018
Javastraat 29,Bakkerij Kardas,28214,52.363592656999,4.9328648214,Amsterdam,Bakery,http://tour-pedia.org/api/getPlaceDetails?id=28214,http://tour-pedia.org/api/getReviewsByPlaceId?placeId=28214
Linnaeusparkweg,Bakkerij Johnny & Marcia van der Horst,28179,52.351055685884,4.9390537558906,Amsterdam,Bakery,http://tour-pedia.org/api/getPlaceDetails?id=28179,http://tour-pedia.org/api/getReviewsByPlaceId?placeId=28179
Latherusstraat 76,Bakkerij ISKEN,27687,52.394424462464,4.9153681924192,Amsterdam,Bakery,http://tour-pedia.org/api/getPlaceDetails?id=27687,http://tour-pedia.org/api/getReviewsByPlaceId?placeId=27687
"Tussen Meer 333, 1069 Amsterdam",Bakkerij Hoeve,26278,52.35901927018,4.7886197656124,Amsterdam,Bakery,http://tour-pedia.org/api/getPlaceDetails?id=26278,http://tour-pedia.org/api/getReviewsByPlaceId?placeId=26278
Winkelcentrum Delflandplein,Bakkerij Delfland,26615,52.349022255147,4.8426009878876,Amsterdam,Bakery,http://tour-pedia.org/api/getPlaceDetails?id=26615,http://tour-pedia.org/api/getReviewsByPlaceId?placeId=26615
Insulindeweg 2,Bakkerij damla,28220,52.361122327346,4.9333243169364,Amsterdam,Bakery,http://tour-pedia.org/api/getPlaceDetails?id=28220,http://tour-pedia.org/api/getReviewsByPlaceId?placeId=28220
Jan van Galenstraat 293,Bakkerij Basak,26673,52.372679,4.848684,Amsterdam,Bakery,http://tour-pedia.org/api/getPlaceDetails?id=26673,http://tour-pedia.org/api/getReviewsByPlaceId?placeId=26673
Winkel Centrum Brazilie,Bakkerij Bart,28207,52.37420051687,4.9370748231729,Amsterdam,Bakery,http://tour-pedia.org/api/getPlaceDetails?id=28207,http://tour-pedia.org/api/getReviewsByPlaceId?placeId=28207
Comeniusstraat 207,Bakker v.d. Heijden,26513,52.359157067947,4.8313976940105,Amsterdam,Bakery,http://tour-pedia.org/api/getPlaceDetails?id=26513,http://tour-pedia.org/api/getReviewsByPlaceId?placeId=26513
Gelderlandplein 35,Bakker Jongejans,27191,52.331164749028,4.8787009512784,Amsterdam,Bakery,http://tour-pedia.org/api/getPlaceDetails?id=27191,http://tour-pedia.org/api/getReviewsByPlaceId?placeId=27191
Bos en Lommerweg 122,Bakker Dekker,26843,52.380915847378,4.8541446762289,Amsterdam,Bakery,http://tour-pedia.org/api/getPlaceDetails?id=26843,http://tour-pedia.org/api/getReviewsByPlaceId?placeId=26843
,BAB EL BARAKA,26350,52.376804,4.804186,Amsterdam,Bakery,http://tour-pedia.org/api/getPlaceDetails?id=26350,http://tour-pedia.org/api/getReviewsByPlaceId?placeId=26350
Javastraat 66,Afrah Fes,28225,52.363729015084,4.935029382834,Amsterdam,Bakery,http://tour-pedia.org/api/getPlaceDetails?id=28225,http://tour-pedia.org/api/getReviewsByPlaceId?placeId=28225
Herengracht 515,P. King,27621,52.36545242227,4.8926496505737,Amsterdam,Bar,http://tour-pedia.org/api/getPlaceDetails?id=27621,http://tour-pedia.org/api/getReviewsByPlaceId?placeId=27621
Kadijksplein 11,Orloff,27738,52.370431423186,4.91228909,Amsterdam,Bar,http://tour-pedia.org/api/getPlaceDetails?id=27738,http://tour-pedia.org/api/getReviewsByPlaceId?placeId=27738
Van Diemenstraat 412,Het Veemcafe,27461,52.390435,4.886876,Amsterdam,Bar,http://tour-pedia.org/api/getPlaceDetails?id=27461,http://tour-pedia.org/api/getReviewsByPlaceId?placeId=27461
De Parade,Het Patronaat/De Doorzak,27780,52.339814307738,4.9091970047201,Amsterdam,Bar,http://tour-pedia.org/api/getPlaceDetails?id=27780,http://tour-pedia.org/api/getReviewsByPlaceId?placeId=27780
Koningin Wilhelminaplein 13,Grand Café Défilé,26597,52.354758109059,4.840646631318,Amsterdam,Bar,http://tour-pedia.org/api/getPlaceDetails?id=26597,http://tour-pedia.org/api/getReviewsByPlaceId?placeId=26597
Noordermarkt 5,Finch,27237,52.379995339177,4.8876068856235,Amsterdam,Bar,http://tour-pedia.org/api/getPlaceDetails?id=27237,http://tour-pedia.org/api/getReviewsByPlaceId?placeId=27237
Spui 30,De Brabantse Aap,27285,52.368454940968,4.8887577652931,Amsterdam,Bar,http://tour-pedia.org/api/getPlaceDetails?id=27285,http://tour-pedia.org/api/getReviewsByPlaceId?placeId=27285
Oude Brugsteeg 27,Coffeeshop 4:20,27378,52.375872670371,4.8961326359963,Amsterdam,Bar,http://tour-pedia.org/api/getPlaceDetails?id=27378,http://tour-pedia.org/api/getReviewsByPlaceId?placeId=27378
Wibautstraat 150,Canvas op de 7e,27984,52.353902760442,4.9118370157464,Amsterdam,Bar,http://tour-pedia.org/api/getPlaceDetails?id=27984,http://tour-pedia.org/api/getReviewsByPlaceId?placeId=27984
Singel 2,Café Kobalt,27371,52.379520691152,4.8946995417624,Amsterdam,Bar,http://tour-pedia.org/api/getPlaceDetails?id=27371,http://tour-pedia.org/api/getReviewsByPlaceId?placeId=27371
Ruysdaelkade 115,Café BinnenBuiten,27304,52.354760001973,4.8869647844634,Amsterdam,Bar,http://tour-pedia.org/api/getPlaceDetails?id=27304,http://tour-pedia.org/api/getReviewsByPlaceId?placeId=27304
Raamstraat 29,Belgisch Bierproeflokaal De Zotte,27127,52.36614496817,4.8808658705332,Amsterdam,Bar,http://tour-pedia.org/api/getPlaceDetails?id=27127,http://tour-pedia.org/api/getReviewsByPlaceId?placeId=27127
Stenen Hoofd,WAYF BBQ,27464,52.389108,4.892713,Amsterdam,BBQ Joint,http://tour-pedia.org/api/getPlaceDetails?id=27464,http://tour-pedia.org/api/getReviewsByPlaceId?placeId=27464
,Tasteburgers @ Bolenius & Lindenhoff,27664,52.330279795112,4.8937412831605,Amsterdam,BBQ Joint,http://tour-pedia.org/api/getPlaceDetails?id=27664,http://tour-pedia.org/api/getReviewsByPlaceId?placeId=27664
,Sebsoft Hq,26178,52.353511810303,4.9959411621094,Amsterdam,BBQ Joint,http://tour-pedia.org/api/getPlaceDetails?id=26178,http://tour-pedia.org/api/getReviewsByPlaceId?placeId=26178
,Sail Bbq starcom,27055,52.400816,4.876222,Amsterdam,BBQ Joint,http://tour-pedia.org/api/getPlaceDetails?id=27055,http://tour-pedia.org/api/getReviewsByPlaceId?placeId=27055
,Rob's BBQ Hoek,26251,52.353825,4.775631,Amsterdam,BBQ Joint,http://tour-pedia.org/api/getPlaceDetails?id=26251,http://tour-pedia.org/api/getReviewsByPlaceId?placeId=26251
,Qoq,26385,52.343418,4.810205,Amsterdam,BBQ Joint,http://tour-pedia.org/api/getPlaceDetails?id=26385,http://tour-pedia.org/api/getReviewsByPlaceId?placeId=26385
,Piggybob's,26622,52.352832063291,4.8320989941716,Amsterdam,BBQ Joint,http://tour-pedia.org/api/getPlaceDetails?id=26622,http://tour-pedia.org/api/getReviewsByPlaceId?placeId=26622
Willem Heselaarstraat,Pete's sateh-BBQ,26329,52.352818826263,4.7982013773784,Amsterdam,BBQ Joint,http://tour-pedia.org/api/getPlaceDetails?id=26329,http://tour-pedia.org/api/getReviewsByPlaceId?placeId=26329
,Pampa lekkere friet,26568,52.38871170377,4.8378170346214,Amsterdam,BBQ Joint,http://tour-pedia.org/api/getPlaceDetails?id=26568,http://tour-pedia.org/api/getReviewsByPlaceId?placeId=26568
Pieter calandlaan 1307,Osdorpse Posse,26288,52.350878,4.794526,Amsterdam,BBQ Joint,http://tour-pedia.org/api/getPlaceDetails?id=26288,http://tour-pedia.org/api/getReviewsByPlaceId?placeId=26288
,IJburg Blok4 BBQ,26169,52.355823,4.994867,Amsterdam,BBQ Joint,http://tour-pedia.org/api/getPlaceDetails?id=26169,http://tour-pedia.org/api/getReviewsByPlaceId?placeId=26169
,Hunter En Joshuas Casa Di Wagyu,27072,52.392883,4.874847,Amsterdam,BBQ Joint,http://tour-pedia.org/api/getPlaceDetails?id=27072,http://tour-pedia.org/api/getReviewsByPlaceId?placeId=27072
Sloterweg 1160-1162,Holland House Sloten,26381,52.342399,4.802328,Amsterdam,BBQ Joint,http://tour-pedia.org/api/getPlaceDetails?id=26381,http://tour-pedia.org/api/getReviewsByPlaceId?placeId=26381
diopter 53-61,Diopter BBQ joint,27802,52.407879297441,4.9309387087162,Amsterdam,BBQ Joint,http://tour-pedia.org/api/getPlaceDetails?id=27802,http://tour-pedia.org/api/getReviewsByPlaceId?placeId=27802
Amerbos,Biggy Sanka Party Town BBQ Spot,27917,52.405233473275,4.9379467964172,Amsterdam,BBQ Joint,http://tour-pedia.org/api/getPlaceDetails?id=27917,http://tour-pedia.org/api/getReviewsByPlaceId?placeId=27917
,Bavaria restaraunt,27543,52.345292937337,4.8907739121015,Amsterdam,BBQ Joint,http://tour-pedia.org/api/getPlaceDetails?id=27543,http://tour-pedia.org/api/getReviewsByPlaceId?placeId=27543
Lindengracht 25HS,Il Fiore,27366,52.380577514204,4.8871094825656,Amsterdam,Bed & Breakfast,http://tour-pedia.org/api/getPlaceDetails?id=27366,http://tour-pedia.org/api/getReviewsByPlaceId?placeId=27366
,Vishandelaar Lot En De Geus,28181,52.349067687988,4.9263668060303,Amsterdam,Breakfast Spot,http://tour-pedia.org/api/getPlaceDetails?id=28181,http://tour-pedia.org/api/getReviewsByPlaceId?placeId=28181
,ROC Restaurant,26642,52.386747619967,4.8419935314751,Amsterdam,Breakfast Spot,http://tour-pedia.org/api/getPlaceDetails?id=26642,http://tour-pedia.org/api/getReviewsByPlaceId?placeId=26642
De boelelaan 1118,Restauratie VUmc,26832,52.335273742676,4.859965801239,Amsterdam,Breakfast Spot,http://tour-pedia.org/api/getPlaceDetails?id=26832,http://tour-pedia.org/api/getReviewsByPlaceId?placeId=26832
,Restaurant City West Remco,26306,52.362326680947,4.7949750500669,Amsterdam,Breakfast Spot,http://tour-pedia.org/api/getPlaceDetails?id=26306,http://tour-pedia.org/api/getReviewsByPlaceId?placeId=26306
,Petersontbijtservice,26187,52.352499,5.000102,Amsterdam,Breakfast Spot,http://tour-pedia.org/api/getPlaceDetails?id=26187,http://tour-pedia.org/api/getReviewsByPlaceId?placeId=26187
,Novotel Breakfast,27328,52.33380843577,4.8890146906477,Amsterdam,Breakfast Spot,http://tour-pedia.org/api/getPlaceDetails?id=27328,http://tour-pedia.org/api/getReviewsByPlaceId?placeId=27328
,NH Musica Breakfast,27184,52.326622230115,4.8798355621088,Amsterdam,Breakfast Spot,http://tour-pedia.org/api/getPlaceDetails?id=27184,http://tour-pedia.org/api/getReviewsByPlaceId?placeId=27184
Movenpick Hotel,Movenpick Hotel breakfast Hall,27946,52.377944645087,4.9117466995551,Amsterdam,Breakfast Spot,http://tour-pedia.org/api/getPlaceDetails?id=27946,http://tour-pedia.org/api/getReviewsByPlaceId?placeId=27946
Ijburglaan 2191A,Mayshaan,26175,52.354645534639,4.9960871608011,Amsterdam,Breakfast Spot,http://tour-pedia.org/api/getPlaceDetails?id=26175,http://tour-pedia.org/api/getReviewsByPlaceId?placeId=26175
Tussen Meer 55,Lunchroom Tussenmeer,26334,52.358336,4.800755,Amsterdam,Breakfast Spot,http://tour-pedia.org/api/getPlaceDetails?id=26334,http://tour-pedia.org/api/getReviewsByPlaceId?placeId=26334
,Koffiehok Acs Arch,26943,52.394876525482,4.8701403383707,Amsterdam,Breakfast Spot,http://tour-pedia.org/api/getPlaceDetails?id=26943,http://tour-pedia.org/api/getReviewsByPlaceId?placeId=26943
,Koffie met een zoetje,26157,52.356428,4.996947,Amsterdam,Breakfast Spot,http://tour-pedia.org/api/getPlaceDetails?id=26157,http://tour-pedia.org/api/getReviewsByPlaceId?placeId=26157
,Keuken van Heleen,26834,52.334264,4.858956,Amsterdam,Breakfast Spot,http://tour-pedia.org/api/getPlaceDetails?id=26834,http://tour-pedia.org/api/getReviewsByPlaceId?placeId=26834
,HEMA,27932,52.399692387983,4.9374625808686,Amsterdam,Breakfast Spot,http://tour-pedia.org/api/getPlaceDetails?id=27932,http://tour-pedia.org/api/getReviewsByPlaceId?placeId=27932
Australiehavenweg 121,Gewoon René,26293,52.399673452275,4.7953015592349,Amsterdam,Breakfast Spot,http://tour-pedia.org/api/getPlaceDetails?id=26293,http://tour-pedia.org/api/getReviewsByPlaceId?placeId=26293
,First Floor Restaurant,27657,52.341913638559,4.8901177733135,Amsterdam,Breakfast Spot,http://tour-pedia.org/api/getPlaceDetails?id=27657,http://tour-pedia.org/api/getReviewsByPlaceId?placeId=27657
Zeedijk 37,De bakkerswinkel,26406,52.354721069336,4.8101100921631,Amsterdam,Breakfast Spot,http://tour-pedia.org/api/getPlaceDetails?id=26406,http://tour-pedia.org/api/getReviewsByPlaceId?placeId=26406
,Dagelijks Lekker,27028,52.337492748688,4.8702493175398,Amsterdam,Breakfast Spot,http://tour-pedia.org/api/getPlaceDetails?id=27028,http://tour-pedia.org/api/getReviewsByPlaceId?placeId=27028
Martelaarsgracht 11,Crêpe Bar,27480,52.37768637248,4.8964067839847,Amsterdam,Breakfast Spot,http://tour-pedia.org/api/getPlaceDetails?id=27480,http://tour-pedia.org/api/getReviewsByPlaceId?placeId=27480
,B&B Lunchroom,26734,52.389843558531,4.839825489852,Amsterdam,Breakfast Spot,http://tour-pedia.org/api/getPlaceDetails?id=26734,http://tour-pedia.org/api/getReviewsByPlaceId?placeId=26734
,B&B Lunchroom,27834,52.375801046491,4.9076490435079,Amsterdam,Breakfast Spot,http://tour-pedia.org/api/getPlaceDetails?id=27834,http://tour-pedia.org/api/getReviewsByPlaceId?placeId=27834
,Alles Voor De Lunch,27782,52.344140945217,4.9106753122781,Amsterdam,Breakfast Spot,http://tour-pedia.org/api/getPlaceDetails?id=27782,http://tour-pedia.org/api/getReviewsByPlaceId?placeId=27782
Stadionweg 255HS,Traffic,26897,52.345246127848,4.8586473959155,Amsterdam,Burger Joint,http://tour-pedia.org/api/getPlaceDetails?id=26897,http://tour-pedia.org/api/getReviewsByPlaceId?placeId=26897
Wolvenstraat 22,Thrill Grill,27260,52.37032843818,4.8856507627438,Amsterdam,Burger Joint,http://tour-pedia.org/api/getPlaceDetails?id=27260,http://tour-pedia.org/api/getReviewsByPlaceId?placeId=27260
,Snackbar de Reiger,27911,52.343338,4.921516,Amsterdam,Burger Joint,http://tour-pedia.org/api/getPlaceDetails?id=27911,http://tour-pedia.org/api/getReviewsByPlaceId?placeId=27911
,Mc Donalds,26273,52.382088805388,4.7934737466422,Amsterdam,Burger Joint,http://tour-pedia.org/api/getPlaceDetails?id=26273,http://tour-pedia.org/api/getReviewsByPlaceId?placeId=26273
,Maccie osdorp,26358,52.360081202237,4.8050618478906,Amsterdam,Burger Joint,http://tour-pedia.org/api/getPlaceDetails?id=26358,http://tour-pedia.org/api/getReviewsByPlaceId?placeId=26358
Rijnstraat,Kruiswijk,27898,52.345325,4.90559,Amsterdam,Burger Joint,http://tour-pedia.org/api/getPlaceDetails?id=27898,http://tour-pedia.org/api/getReviewsByPlaceId?placeId=27898
,Keuken 1,28180,52.3486992,4.9272334,Amsterdam,Burger Joint,http://tour-pedia.org/api/getPlaceDetails?id=28180,http://tour-pedia.org/api/getReviewsByPlaceId?placeId=28180
Belgiëplein,Gil's snackbar,26386,52.345551729674,4.8112177848816,Amsterdam,Burger Joint,http://tour-pedia.org/api/getPlaceDetails?id=26386,http://tour-pedia.org/api/getReviewsByPlaceId?placeId=26386
A,Burgerss,26941,52.391605921916,4.8663454191856,Amsterdam,Burger Joint,http://tour-pedia.org/api/getPlaceDetails?id=26941,http://tour-pedia.org/api/getReviewsByPlaceId?placeId=26941
A,Burger Spot,26628,52.394096363132,4.8404666301176,Amsterdam,Burger Joint,http://tour-pedia.org/api/getPlaceDetails?id=26628,http://tour-pedia.org/api/getReviewsByPlaceId?placeId=26628
A,Burger Joint,26733,52.395418089072,4.8562275532898,Amsterdam,Burger Joint,http://tour-pedia.org/api/getPlaceDetails?id=26733,http://tour-pedia.org/api/getReviewsByPlaceId?placeId=26733
,Burger Block,27674,52.407438,4.916948,Amsterdam,Burger Joint,http://tour-pedia.org/api/getPlaceDetails?id=27674,http://tour-pedia.org/api/getReviewsByPlaceId?placeId=27674
Reguliersbreestraat 9,Burger Bar,27395,52.366885915044,4.8940393033831,Amsterdam,Burger Joint,http://tour-pedia.org/api/getPlaceDetails?id=27395,http://tour-pedia.org/api/getReviewsByPlaceId?placeId=27395
Burgemeester Van Leeuwenlaan,Buddy Grillbar Snackbar,26393,52.377382803514,4.8128843493875,Amsterdam,Burger Joint,http://tour-pedia.org/api/getPlaceDetails?id=26393,http://tour-pedia.org/api/getReviewsByPlaceId?placeId=26393
,Y-Zicht,28188,52.389475,4.943756,Amsterdam,Café,http://tour-pedia.org/api/getPlaceDetails?id=28188,http://tour-pedia.org/api/getReviewsByPlaceId?placeId=28188
BURG. RENDORPSTRAAT 2,Wild Bean Café - BP Sloterplas,26508,52.373748828741,4.8272788524628,Amsterdam,Café,http://tour-pedia.org/api/getPlaceDetails?id=26508,http://tour-pedia.org/api/getReviewsByPlaceId?placeId=26508
OUDE HAAGSEWEG 18,Wild Bean Café - BP Oude Haagseweg,26426,52.337423746898,4.8181593418121,Amsterdam,Café,http://tour-pedia.org/api/getPlaceDetails?id=26426,http://tour-pedia.org/api/getReviewsByPlaceId?placeId=26426
IJDOORNLAAN 11,Wild Bean Café - BP Kadoelen,27560,52.419676,4.9117194,Amsterdam,Café,http://tour-pedia.org/api/getPlaceDetails?id=27560,http://tour-pedia.org/api/getReviewsByPlaceId?placeId=27560
,Water Dispenser Starcom,27056,52.40018763873,4.8759654644244,Amsterdam,Café,http://tour-pedia.org/api/getPlaceDetails?id=27056,http://tour-pedia.org/api/getReviewsByPlaceId?placeId=27056
Prins Hendrikkade 25,Van Gogh Café,27594,52.378848970046,4.8969021955196,Amsterdam,Café,http://tour-pedia.org/api/getPlaceDetails?id=27594,http://tour-pedia.org/api/getReviewsByPlaceId?placeId=27594
Albert Cuypstraat 210,TRUST,27753,52.356561452088,4.8985934257507,Amsterdam,Café,http://tour-pedia.org/api/getPlaceDetails?id=27753,http://tour-pedia.org/api/getReviewsByPlaceId?placeId=27753
Rijnstraat 163,Time Out,27791,52.342466045461,4.9066473834386,Amsterdam,Café,http://tour-pedia.org/api/getPlaceDetails?id=27791,http://tour-pedia.org/api/getReviewsByPlaceId?placeId=27791
Krijn Taconiskade,The Lighthouse Harbour Club IJburg,26160,52.353726625442,5.006233,Amsterdam,Café,http://tour-pedia.org/api/getPlaceDetails?id=26160,http://tour-pedia.org/api/getReviewsByPlaceId?placeId=26160
,Soepkip,28269,52.368448,4.959163,Amsterdam,Café,http://tour-pedia.org/api/getPlaceDetails?id=28269,http://tour-pedia.org/api/getReviewsByPlaceId?placeId=28269
,Snack Corner,28104,52.334546,4.921862,Amsterdam,Café,http://tour-pedia.org/api/getPlaceDetails?id=28104,http://tour-pedia.org/api/getReviewsByPlaceId?placeId=28104
Buikslotermeerplein 234,Segafredo,27928,52.39778421226,4.9383974075317,Amsterdam,Café,http://tour-pedia.org/api/getPlaceDetails?id=27928,http://tour-pedia.org/api/getReviewsByPlaceId?placeId=27928
,Restaurant Polikliniek VUmc,26823,52.335373581624,4.8598318364919,Amsterdam,Café,http://tour-pedia.org/api/getPlaceDetails?id=26823,http://tour-pedia.org/api/getReviewsByPlaceId?placeId=26823
,Rendez VU,26929,52.334522247314,4.8663325309753,Amsterdam,Café,http://tour-pedia.org/api/getPlaceDetails?id=26929,http://tour-pedia.org/api/getReviewsByPlaceId?placeId=26929
Plantage Kerklaan 61B,Plancius Café,27883,52.367804266204,4.9128198623657,Amsterdam,Café,http://tour-pedia.org/api/getPlaceDetails?id=27883,http://tour-pedia.org/api/getReviewsByPlaceId?placeId=27883
Stadionplein 17-19,olimpic 1928,26922,52.339536219076,4.8581058310728,Amsterdam,Café,http://tour-pedia.org/api/getPlaceDetails?id=26922,http://tour-pedia.org/api/getReviewsByPlaceId?placeId=26922
Javakade,Odie Palace,28125,52.378987460813,4.9251354829978,Amsterdam,Café,http://tour-pedia.org/api/getPlaceDetails?id=28125,http://tour-pedia.org/api/getReviewsByPlaceId?placeId=28125
Strawinskylaan 77,Nooon,27030,52.340146,4.873139,Amsterdam,Café,http://tour-pedia.org/api/getPlaceDetails?id=27030,http://tour-pedia.org/api/getReviewsByPlaceId?placeId=27030
Amstelveld 12,NeL Amstelveld,27730,52.362242182513,4.8967587947845,Amsterdam,Café,http://tour-pedia.org/api/getPlaceDetails?id=27730,http://tour-pedia.org/api/getReviewsByPlaceId?placeId=27730
,Mokum aan zee,26463,52.372718811035,4.8236174583435,Amsterdam,Café,http://tour-pedia.org/api/getPlaceDetails?id=26463,http://tour-pedia.org/api/getReviewsByPlaceId?placeId=26463
,Mensjelief,27063,52.390864,4.878538,Amsterdam,Café,http://tour-pedia.org/api/getPlaceDetails?id=27063,http://tour-pedia.org/api/getReviewsByPlaceId?placeId=27063
Pazzanistraat 21,Mediacafe Westergasfabriek,26954,52.3862183,4.8732005,Amsterdam,Café,http://tour-pedia.org/api/getPlaceDetails?id=26954,http://tour-pedia.org/api/getReviewsByPlaceId?placeId=26954
De Clercqstraat 82,Louter Café Restaurant,26982,52.370738982189,4.8686277866364,Amsterdam,Café,http://tour-pedia.org/api/getPlaceDetails?id=26982,http://tour-pedia.org/api/getReviewsByPlaceId?placeId=26982
Basisweg 30,Krantcafe TMG HQ,26493,52.392191184882,4.834304328384,Amsterdam,Café,http://tour-pedia.org/api/getPlaceDetails?id=26493,http://tour-pedia.org/api/getReviewsByPlaceId?placeId=26493
,Koffie,27345,52.399192,4.893538,Amsterdam,Café,http://tour-pedia.org/api/getPlaceDetails?id=27345,http://tour-pedia.org/api/getReviewsByPlaceId?placeId=27345
Vondelpark 6,Kinderkookcafé,27019,52.359287062322,4.8648878220005,Amsterdam,Café,http://tour-pedia.org/api/getPlaceDetails?id=27019,http://tour-pedia.org/api/getReviewsByPlaceId?placeId=27019
,Kanka,27570,52.390725685703,4.9114541893246,Amsterdam,Café,http://tour-pedia.org/api/getPlaceDetails?id=27570,http://tour-pedia.org/api/getReviewsByPlaceId?placeId=27570
Stadionplein 19,Jozz,26898,52.344339431973,4.8584221613773,Amsterdam,Café,http://tour-pedia.org/api/getPlaceDetails?id=26898,http://tour-pedia.org/api/getReviewsByPlaceId?placeId=26898
,JMM Koffiehoek,27555,52.32754,4.876138,Amsterdam,Café,http://tour-pedia.org/api/getPlaceDetails?id=27555,http://tour-pedia.org/api/getReviewsByPlaceId?placeId=27555
Kabelweg 32,J.u.i.c.e. Promotions,26647,52.390588,4.847148,Amsterdam,Café,http://tour-pedia.org/api/getPlaceDetails?id=26647,http://tour-pedia.org/api/getReviewsByPlaceId?placeId=26647
,IJverig,26171,52.35584,4.99431,Amsterdam,Café,http://tour-pedia.org/api/getPlaceDetails?id=26171,http://tour-pedia.org/api/getReviewsByPlaceId?placeId=26171
,Huis,26254,52.384079469848,4.7834857894323,Amsterdam,Café,http://tour-pedia.org/api/getPlaceDetails?id=26254,http://tour-pedia.org/api/getReviewsByPlaceId?placeId=26254
Ternatestraat,Het Verre Oosten,28275,52.365961,4.944073,Amsterdam,Café,http://tour-pedia.org/api/getPlaceDetails?id=28275,http://tour-pedia.org/api/getReviewsByPlaceId?placeId=28275
Buiksloterweg 7,Het Tolhuis,27696,52.38309042,4.904765,Amsterdam,Café,http://tour-pedia.org/api/getPlaceDetails?id=27696,http://tour-pedia.org/api/getReviewsByPlaceId?placeId=27696
,Het Gemaal,28236,52.362014651299,4.950213,Amsterdam,Café,http://tour-pedia.org/api/getPlaceDetails?id=28236,http://tour-pedia.org/api/getReviewsByPlaceId?placeId=28236
,Hermes Sloterdijk,26563,52.388255825062,4.8376152318046,Amsterdam,Café,http://tour-pedia.org/api/getPlaceDetails?id=26563,http://tour-pedia.org/api/getReviewsByPlaceId?placeId=26563
Haarlemmerstraat 77HS,Harlem,27369,52.380272418409,4.8917526869627,Amsterdam,Café,http://tour-pedia.org/api/getPlaceDetails?id=27369,http://tour-pedia.org/api/getReviewsByPlaceId?placeId=27369
Goudsbloemstraat 91,Gs,27365,52.380752,4.884401,Amsterdam,Café,http://tour-pedia.org/api/getPlaceDetails?id=27365,http://tour-pedia.org/api/getReviewsByPlaceId?placeId=27365
,Grandcafe Sloterplas,26407,52.357002614714,4.8155564123301,Amsterdam,Café,http://tour-pedia.org/api/getPlaceDetails?id=26407,http://tour-pedia.org/api/getReviewsByPlaceId?placeId=26407
Europaplein,Grand Cafe - Amsterdam RAI,27428,52.341688751032,4.8904000893,Amsterdam,Café,http://tour-pedia.org/api/getPlaceDetails?id=27428,http://tour-pedia.org/api/getReviewsByPlaceId?placeId=27428
Maasstraat 74,GOOS,27432,52.344957092516,4.8951868652951,Amsterdam,Café,http://tour-pedia.org/api/getPlaceDetails?id=27432,http://tour-pedia.org/api/getReviewsByPlaceId?placeId=27432
Theophile de Bockstraat 1,Gent aan de Schinkel,26772,52.354703541072,4.8531762583306,Amsterdam,Café,http://tour-pedia.org/api/getPlaceDetails?id=26772,http://tour-pedia.org/api/getReviewsByPlaceId?placeId=26772
,Fort Diemerdam,28324,52.343607992793,5.0131992379742,Amsterdam,Café,http://tour-pedia.org/api/getPlaceDetails?id=28324,http://tour-pedia.org/api/getReviewsByPlaceId?placeId=28324
,Espresso Bar Uwv,26564,52.389949469434,4.8404806564429,Amsterdam,Café,http://tour-pedia.org/api/getPlaceDetails?id=26564,http://tour-pedia.org/api/getReviewsByPlaceId?placeId=26564
,Effe Bij Moeder Aan,27083,52.390575,4.877894,Amsterdam,Café,http://tour-pedia.org/api/getPlaceDetails?id=27083,http://tour-pedia.org/api/getReviewsByPlaceId?placeId=27083
Mosplein 1,Eetcafe Number One,27582,52.392002704818,4.9110450518269,Amsterdam,Café,http://tour-pedia.org/api/getPlaceDetails?id=27582,http://tour-pedia.org/api/getReviewsByPlaceId?placeId=27582
,Eetcafe De Zwijger,27944,52.376138796368,4.9223363733709,Amsterdam,Café,http://tour-pedia.org/api/getPlaceDetails?id=27944,http://tour-pedia.org/api/getReviewsByPlaceId?placeId=27944
Kwakersplein 2,Du Cap,26984,52.368946079955,4.8706509865503,Amsterdam,Café,http://tour-pedia.org/api/getPlaceDetails?id=26984,http://tour-pedia.org/api/getReviewsByPlaceId?placeId=26984
Gustav Mahlerplein 110,Dickys Grand Café,27033,52.336808556715,4.8734369315039,Amsterdam,Café,http://tour-pedia.org/api/getPlaceDetails?id=27033,http://tour-pedia.org/api/getReviewsByPlaceId?placeId=27033
Haarlemmerdijk 108A,Deksels! Lekkere Dingen,27229,52.383167536436,4.8863568250382,Amsterdam,Café,http://tour-pedia.org/api/getPlaceDetails?id=27229,http://tour-pedia.org/api/getReviewsByPlaceId?placeId=27229
Dorpsweg Ransdorp 70,De Zwaan,28313,52.393630302564,4.994309253696,Amsterdam,Café,http://tour-pedia.org/api/getPlaceDetails?id=28313,http://tour-pedia.org/api/getReviewsByPlaceId?placeId=28313
,De Zuid,28132,52.370078126403,4.9355883058948,Amsterdam,Café,http://tour-pedia.org/api/getPlaceDetails?id=28132,http://tour-pedia.org/api/getReviewsByPlaceId?placeId=28132
Buiksloterdijk 270,De Ruimte,27803,52.399486263236,4.9213600158691,Amsterdam,Café,http://tour-pedia.org/api/getPlaceDetails?id=27803,http://tour-pedia.org/api/getReviewsByPlaceId?placeId=27803
Willemsparkweg 163HS,De Joffers,27010,52.355876144301,4.8709097076329,Amsterdam,Café,http://tour-pedia.org/api/getPlaceDetails?id=27010,http://tour-pedia.org/api/getReviewsByPlaceId?placeId=27010
Westerstraat 118,De Blaffende Vis,27242,52.378426445883,4.8833359368727,Amsterdam,Café,http://tour-pedia.org/api/getPlaceDetails?id=27242,http://tour-pedia.org/api/getReviewsByPlaceId?placeId=27242
Changeweg 110,De Amsterdamsche  Tram,26436,52.414662240451,4.8238575928217,Amsterdam,Café,http://tour-pedia.org/api/getPlaceDetails?id=26436,http://tour-pedia.org/api/getReviewsByPlaceId?placeId=26436
Spuistraat 320,Dante Kitchen & Bar,27291,52.368989967341,4.8885405063629,Amsterdam,Café,http://tour-pedia.org/api/getPlaceDetails?id=27291,http://tour-pedia.org/api/getReviewsByPlaceId?placeId=27291
Jan Pieter Heijestraat 143-a,Coffee Plaza,26885,52.361434733333,4.865052,Amsterdam,Café,http://tour-pedia.org/api/getPlaceDetails?id=26885,http://tour-pedia.org/api/getReviewsByPlaceId?placeId=26885
,City House Coffee & Books,26804,52.351721,4.857271,Amsterdam,Café,http://tour-pedia.org/api/getPlaceDetails?id=26804,http://tour-pedia.org/api/getReviewsByPlaceId?placeId=26804
,Chateau Betondorp,28165,52.340388513424,4.9467821311681,Amsterdam,Café,http://tour-pedia.org/api/getPlaceDetails?id=28165,http://tour-pedia.org/api/getReviewsByPlaceId?placeId=28165
Louis couperusstraat 28,Cafetaria Yasmina,26505,52.375098,4.831489,Amsterdam,Café,http://tour-pedia.org/api/getPlaceDetails?id=26505,http://tour-pedia.org/api/getReviewsByPlaceId?placeId=26505
Buiksloterweg 3-5,Café-Restaurant De Pont,27474,52.382512805593,4.9034313399459,Amsterdam,Café,http://tour-pedia.org/api/getPlaceDetails?id=27474,http://tour-pedia.org/api/getReviewsByPlaceId?placeId=27474
Molensteeg 8,Cafe-Bar Dallas,28278,52.365129,4.936446,Amsterdam,Café,http://tour-pedia.org/api/getPlaceDetails?id=28278,http://tour-pedia.org/api/getReviewsByPlaceId?placeId=28278
Eerste Constantijn Huijgensstraat 45-47,Café Zouk,27122,52.363847512255,4.8745485809433,Amsterdam,Café,http://tour-pedia.org/api/getPlaceDetails?id=27122,http://tour-pedia.org/api/getReviewsByPlaceId?placeId=27122
Spuistraat 189,Café Schuim,27264,52.372055610596,4.889640212059,Amsterdam,Café,http://tour-pedia.org/api/getPlaceDetails?id=27264,http://tour-pedia.org/api/getReviewsByPlaceId?placeId=27264
,cafe Roosenburgh,28161,52.346101028842,4.9383526374211,Amsterdam,Café,http://tour-pedia.org/api/getPlaceDetails?id=28161,http://tour-pedia.org/api/getReviewsByPlaceId?placeId=28161
,Café Renzo Piano,27837,52.37410139453,4.9116701397747,Amsterdam,Café,http://tour-pedia.org/api/getPlaceDetails?id=27837,http://tour-pedia.org/api/getReviewsByPlaceId?placeId=27837
Grasweg,Cafe Ot & Sien,27703,52.384663,4.9069,Amsterdam,Café,http://tour-pedia.org/api/getPlaceDetails?id=27703,http://tour-pedia.org/api/getReviewsByPlaceId?placeId=27703
Weesperplein 19-21,Café Noir,27870,52.361652165287,4.9079891655243,Amsterdam,Café,http://tour-pedia.org/api/getPlaceDetails?id=27870,http://tour-pedia.org/api/getReviewsByPlaceId?placeId=27870
Orylplein 10,Cafe Milla,26551,52.39099855151,4.8368958312929,Amsterdam,Café,http://tour-pedia.org/api/getPlaceDetails?id=26551,http://tour-pedia.org/api/getReviewsByPlaceId?placeId=26551
Buikslotermeerplein 123,Café MarchÃ©,27919,52.398858,4.931388,Amsterdam,Café,http://tour-pedia.org/api/getPlaceDetails?id=27919,http://tour-pedia.org/api/getReviewsByPlaceId?placeId=27919
,"cafe Jantje, Marken",28273,52.364099570074,4.9604027418332,Amsterdam,Café,http://tour-pedia.org/api/getPlaceDetails?id=28273,http://tour-pedia.org/api/getReviewsByPlaceId?placeId=28273
Rode Kruisstraat,Cafe Herones,28196,52.393993,4.933465,Amsterdam,Café,http://tour-pedia.org/api/getPlaceDetails?id=28196,http://tour-pedia.org/api/getReviewsByPlaceId?placeId=28196
Nieuwmarkt 16,Café Gewaeght,27854,52.37270244724,4.8997548222542,Amsterdam,Café,http://tour-pedia.org/api/getPlaceDetails?id=27854,http://tour-pedia.org/api/getReviewsByPlaceId?placeId=27854
Spaarndammerstraat,Cafe De Walvis,27065,52.391087,4.878816,Amsterdam,Café,http://tour-pedia.org/api/getPlaceDetails?id=27065,http://tour-pedia.org/api/getReviewsByPlaceId?placeId=27065
Hemonystraat 70HS,Café Bloemers,27512,52.355519,4.903367,Amsterdam,Café,http://tour-pedia.org/api/getPlaceDetails?id=27512,http://tour-pedia.org/api/getReviewsByPlaceId?placeId=27512
,Cabanaz,26204,52.355887,4.994404,Amsterdam,Café,http://tour-pedia.org/api/getPlaceDetails?id=26204,http://tour-pedia.org/api/getReviewsByPlaceId?placeId=26204
Jan Evertsenstraat 123,Buongiorno Espressobar,26759,52.370362402748,4.8520721634007,Amsterdam,Café,http://tour-pedia.org/api/getPlaceDetails?id=26759,http://tour-pedia.org/api/getReviewsByPlaceId?placeId=26759
,Brasserie Tov,26917,52.340799,4.861121,Amsterdam,Café,http://tour-pedia.org/api/getPlaceDetails?id=26917,http://tour-pedia.org/api/getReviewsByPlaceId?placeId=26917
,Boomerang Casa Cafe,27567,52.395818,4.902253,Amsterdam,Café,http://tour-pedia.org/api/getPlaceDetails?id=27567,http://tour-pedia.org/api/getReviewsByPlaceId?placeId=27567
,Bilal,26205,52.360004425049,4.9901895523071,Amsterdam,Café,http://tour-pedia.org/api/getPlaceDetails?id=26205,http://tour-pedia.org/api/getReviewsByPlaceId?placeId=26205
,beyoğlu patisserie,26458,52.380363464355,4.8208703994751,Amsterdam,Café,http://tour-pedia.org/api/getPlaceDetails?id=26458,http://tour-pedia.org/api/getReviewsByPlaceId?placeId=26458
Thomas R. Malthusstraat 5,Bacchus - PwC,26481,52.339323,4.822423,Amsterdam,Café,http://tour-pedia.org/api/getPlaceDetails?id=26481,http://tour-pedia.org/api/getReviewsByPlaceId?placeId=26481
Number 438,Amsterdam cafe,26355,52.363538,4.801309,Amsterdam,Café,http://tour-pedia.org/api/getPlaceDetails?id=26355,http://tour-pedia.org/api/getReviewsByPlaceId?placeId=26355
,Amsterdam (Coffee shop),26588,52.368088454524,4.8441047492885,Amsterdam,Café,http://tour-pedia.org/api/getPlaceDetails?id=26588,http://tour-pedia.org/api/getReviewsByPlaceId?placeId=26588
Vliegtuigstraat 18,'t Schinkeltje,26718,52.340296978361,4.8441092198605,Amsterdam,Café,http://tour-pedia.org/api/getPlaceDetails?id=26718,http://tour-pedia.org/api/getReviewsByPlaceId?placeId=26718
,WMF,26544,52.399120759237,4.8363978503719,Amsterdam,Cafeteria,http://tour-pedia.org/api/getPlaceDetails?id=26544,http://tour-pedia.org/api/getReviewsByPlaceId?placeId=26544
Korte Ouderkerkerdijk,Waternet Kantine,27771,52.340504563573,4.9178573677231,Amsterdam,Cafeteria,http://tour-pedia.org/api/getPlaceDetails?id=27771,http://tour-pedia.org/api/getReviewsByPlaceId?placeId=27771
Anderlechtlaan 181,Troostwijk Bedrijfsrestaurant,26414,52.342815621087,4.8120181922302,Amsterdam,Cafeteria,http://tour-pedia.org/api/getPlaceDetails?id=26414,http://tour-pedia.org/api/getReviewsByPlaceId?placeId=26414
Basisweg 30,TMG:MT-CA koffiehoek,26495,52.3924502,4.83269215,Amsterdam,Cafeteria,http://tour-pedia.org/api/getPlaceDetails?id=26495,http://tour-pedia.org/api/getReviewsByPlaceId?placeId=26495
,restaurant IISG,28047,52.369152069092,4.9393649101257,Amsterdam,Cafeteria,http://tour-pedia.org/api/getPlaceDetails?id=28047,http://tour-pedia.org/api/getReviewsByPlaceId?placeId=28047
,Restaurant IH.06,26828,52.337535,4.853992,Amsterdam,Cafeteria,http://tour-pedia.org/api/getPlaceDetails?id=26828,http://tour-pedia.org/api/getReviewsByPlaceId?placeId=26828
Simon Carmiggeltstraat 6,Plaza Restaurant (Club 11),27824,52.376617653672,4.9059695005417,Amsterdam,Cafeteria,http://tour-pedia.org/api/getPlaceDetails?id=27824,http://tour-pedia.org/api/getReviewsByPlaceId?placeId=27824
Dynamostraat 50,Ontmoetingsruimte Deloitte CyberCenter,26629,52.397866049603,4.8516292505633,Amsterdam,Cafeteria,http://tour-pedia.org/api/getPlaceDetails?id=26629,http://tour-pedia.org/api/getReviewsByPlaceId?placeId=26629
Mensinge 2,Muse coffeecorner,27669,52.332543,4.88926,Amsterdam,Cafeteria,http://tour-pedia.org/api/getPlaceDetails?id=27669,http://tour-pedia.org/api/getReviewsByPlaceId?placeId=27669
,Milieu Service Nederland,28201,52.369726050714,4.955066851156,Amsterdam,Cafeteria,http://tour-pedia.org/api/getPlaceDetails?id=28201,http://tour-pedia.org/api/getReviewsByPlaceId?placeId=28201
Pilotenstraat 37,Lunchroom Etcetera,26723,52.339550345833,4.8439075690197,Amsterdam,Cafeteria,http://tour-pedia.org/api/getPlaceDetails?id=26723,http://tour-pedia.org/api/getReviewsByPlaceId?placeId=26723
,lekker (by Vermaat),26627,52.393532133214,4.8457910803974,Amsterdam,Cafeteria,http://tour-pedia.org/api/getPlaceDetails?id=26627,http://tour-pedia.org/api/getReviewsByPlaceId?placeId=26627
Teleportboulevard 121,KPN Sodexo Restaurant,26558,52.38820881722,4.841675320304,Amsterdam,Cafeteria,http://tour-pedia.org/api/getPlaceDetails?id=26558,http://tour-pedia.org/api/getReviewsByPlaceId?placeId=26558
la guardia,Koffie Corner UWV,26552,52.390546628606,4.8382549312108,Amsterdam,Cafeteria,http://tour-pedia.org/api/getPlaceDetails?id=26552,http://tour-pedia.org/api/getReviewsByPlaceId?placeId=26552
Corsicaweg 8,Kantine steinweg,26389,52.401790435417,4.8179136926289,Amsterdam,Cafeteria,http://tour-pedia.org/api/getPlaceDetails?id=26389,http://tour-pedia.org/api/getReviewsByPlaceId?placeId=26389
Haarlemmerweg 506-520,ING bedrijfsrestaurant HLW,26641,52.385784854228,4.8505175113678,Amsterdam,Cafeteria,http://tour-pedia.org/api/getPlaceDetails?id=26641,http://tour-pedia.org/api/getReviewsByPlaceId?placeId=26641
De Boelelaan 1117,Het Plein,26824,52.334562,4.861557,Amsterdam,Cafeteria,http://tour-pedia.org/api/getPlaceDetails?id=26824,http://tour-pedia.org/api/getReviewsByPlaceId?placeId=26824
,Espresso bar Pronto,26423,52.332748413086,4.8131217956543,Amsterdam,Cafeteria,http://tour-pedia.org/api/getPlaceDetails?id=26423,http://tour-pedia.org/api/getReviewsByPlaceId?placeId=26423
IJdoornlaan,Crewroom McDonald's,27449,52.4196048,4.9075138,Amsterdam,Cafeteria,http://tour-pedia.org/api/getPlaceDetails?id=27449,http://tour-pedia.org/api/getReviewsByPlaceId?placeId=27449
radarweg,Coffee Corner First Floor Elsevier,26546,52.393161876328,4.8370546783093,Amsterdam,Cafeteria,http://tour-pedia.org/api/getPlaceDetails?id=26546,http://tour-pedia.org/api/getReviewsByPlaceId?placeId=26546
,Cafetaria Raymond,27196,52.420963287354,4.8900723457336,Amsterdam,Cafeteria,http://tour-pedia.org/api/getPlaceDetails?id=27196,http://tour-pedia.org/api/getReviewsByPlaceId?placeId=27196
,Bamboeplein,26932,52.33454040993,4.8689251286546,Amsterdam,Cafeteria,http://tour-pedia.org/api/getPlaceDetails?id=26932,http://tour-pedia.org/api/getReviewsByPlaceId?placeId=26932
,Willy tjong,28234,52.359182236622,4.9384773435408,Amsterdam,Caribbean Restaurant,http://tour-pedia.org/api/getPlaceDetails?id=28234,http://tour-pedia.org/api/getReviewsByPlaceId?placeId=28234
Ceintuurbaan 205,Warung-Mini,27889,52.355130997474,4.9021284223415,Amsterdam,Caribbean Restaurant,http://tour-pedia.org/api/getPlaceDetails?id=27889,http://tour-pedia.org/api/getReviewsByPlaceId?placeId=27889
Polonceaukade 5,Toko MC,26959,52.385861468839,4.8739171028137,Amsterdam,Caribbean Restaurant,http://tour-pedia.org/api/getPlaceDetails?id=26959,http://tour-pedia.org/api/getReviewsByPlaceId?placeId=26959
Willem Fenengastraat 12,Tasty Melody,27785,52.334451401212,4.9167566166815,Amsterdam,Caribbean Restaurant,http://tour-pedia.org/api/getPlaceDetails?id=27785,http://tour-pedia.org/api/getReviewsByPlaceId?placeId=27785
Johan Huizingalaan 625,Kaminah,26475,52.349573095738,4.8272109009642,Amsterdam,Caribbean Restaurant,http://tour-pedia.org/api/getPlaceDetails?id=26475,http://tour-pedia.org/api/getReviewsByPlaceId?placeId=26475
,Eten bij de baas,28127,52.376356697627,4.9262376181367,Amsterdam,Caribbean Restaurant,http://tour-pedia.org/api/getPlaceDetails?id=28127,http://tour-pedia.org/api/getReviewsByPlaceId?placeId=28127
Jan V Galenstraat 107,"Amsterdam, Rams rotti",26705,52.351548569307,4.8479225267351,Amsterdam,Caribbean Restaurant,http://tour-pedia.org/api/getPlaceDetails?id=26705,http://tour-pedia.org/api/getReviewsByPlaceId?placeId=26705
Middenweg 267,Wong Koen,28069,52.34861587831,4.9385607652522,Amsterdam,Chinese Restaurant,http://tour-pedia.org/api/getPlaceDetails?id=28069,http://tour-pedia.org/api/getReviewsByPlaceId?placeId=28069
Pieter Calandlaan,Wok Hut,26468,52.354388553432,4.8114386393742,Amsterdam,Chinese Restaurant,http://tour-pedia.org/api/getPlaceDetails?id=26468,http://tour-pedia.org/api/getReviewsByPlaceId?placeId=26468
Maasstraat 102,Tai Wan,27655,52.344172,4.895603,Amsterdam,Chinese Restaurant,http://tour-pedia.org/api/getPlaceDetails?id=27655,http://tour-pedia.org/api/getReviewsByPlaceId?placeId=27655
Dijkgraafplein 181,Royal City,26276,52.355809359353,4.7865801928265,Amsterdam,Chinese Restaurant,http://tour-pedia.org/api/getPlaceDetails?id=26276,http://tour-pedia.org/api/getReviewsByPlaceId?placeId=26276
Molukkenstraat 2,Restaurant Zen,28048,52.3662,4.939183,Amsterdam,Chinese Restaurant,http://tour-pedia.org/api/getPlaceDetails?id=28048,http://tour-pedia.org/api/getReviewsByPlaceId?placeId=28048
Tussen Meer 85A,Peninsula,26331,52.358124,4.800642,Amsterdam,Chinese Restaurant,http://tour-pedia.org/api/getPlaceDetails?id=26331,http://tour-pedia.org/api/getReviewsByPlaceId?placeId=26331
Wijttenbachstraat 390,Mi-Gudu,28223,52.361022,4.930125,Amsterdam,Chinese Restaurant,http://tour-pedia.org/api/getPlaceDetails?id=28223,http://tour-pedia.org/api/getReviewsByPlaceId?placeId=28223
Van Limburg Stirumplein 10-A,Mei Lok,26965,52.384535,4.874944,Amsterdam,Chinese Restaurant,http://tour-pedia.org/api/getPlaceDetails?id=26965,http://tour-pedia.org/api/getReviewsByPlaceId?placeId=26965
,LMK,28206,52.369697570801,4.9420619010925,Amsterdam,Chinese Restaurant,http://tour-pedia.org/api/getPlaceDetails?id=28206,http://tour-pedia.org/api/getReviewsByPlaceId?placeId=28206
Admiraal de Ruijterweg 474HS,Lei Ping,26738,52.384495614784,4.8476184504752,Amsterdam,Chinese Restaurant,http://tour-pedia.org/api/getPlaceDetails?id=26738,http://tour-pedia.org/api/getReviewsByPlaceId?placeId=26738
Osdorper Ban 30,Kwun Wah,26326,52.362497233979,4.8017624953949,Amsterdam,Chinese Restaurant,http://tour-pedia.org/api/getPlaceDetails?id=26326,http://tour-pedia.org/api/getReviewsByPlaceId?placeId=26326
Mercatorplein 28,Jade Garden,26687,52.369927082874,4.8511157257338,Amsterdam,Chinese Restaurant,http://tour-pedia.org/api/getPlaceDetails?id=26687,http://tour-pedia.org/api/getReviewsByPlaceId?placeId=26687
Borneolaan 515,Havenstad,28270,52.371345,4.93986,Amsterdam,Chinese Restaurant,http://tour-pedia.org/api/getPlaceDetails?id=28270,http://tour-pedia.org/api/getReviewsByPlaceId?placeId=28270
Burgemeester Vening Meineszlaan 60,Golden House,26500,52.382857443919,4.8342334348614,Amsterdam,Chinese Restaurant,http://tour-pedia.org/api/getPlaceDetails?id=26500,http://tour-pedia.org/api/getReviewsByPlaceId?placeId=26500
Winkelcentrum Delflandplein,Golden Garden,26609,52.3498794888,4.8396048337963,Amsterdam,Chinese Restaurant,http://tour-pedia.org/api/getPlaceDetails?id=26609,http://tour-pedia.org/api/getReviewsByPlaceId?placeId=26609
Pomonastraat 22,Far East Culinair City,27340,52.410159716433,4.8966230570353,Amsterdam,Chinese Restaurant,http://tour-pedia.org/api/getPlaceDetails?id=27340,http://tour-pedia.org/api/getReviewsByPlaceId?placeId=27340
Purmerweg 57,De Pauw,28190,52.39201857236,4.9417383673426,Amsterdam,Chinese Restaurant,http://tour-pedia.org/api/getPlaceDetails?id=28190,http://tour-pedia.org/api/getReviewsByPlaceId?placeId=28190
Spaarndammerstraat 145,Chung Wah,27070,52.391382,4.878253,Amsterdam,Chinese Restaurant,http://tour-pedia.org/api/getPlaceDetails?id=27070,http://tour-pedia.org/api/getReviewsByPlaceId?placeId=27070
Borneolaan 515,Chinees Specialiteiten Restaurant Havenstad,28050,52.371224,4.939733,Amsterdam,Chinese Restaurant,http://tour-pedia.org/api/getPlaceDetails?id=28050,http://tour-pedia.org/api/getReviewsByPlaceId?placeId=28050
Meer en Vaart 179,Chinees Specialiteiten Restaurant Canton,26366,52.360193675697,4.8080602127077,Amsterdam,Chinese Restaurant,http://tour-pedia.org/api/getPlaceDetails?id=26366,http://tour-pedia.org/api/getReviewsByPlaceId?placeId=26366
,Chinees Restaurant De Pauw,28118,52.391926617609,4.9418446340781,Amsterdam,Chinese Restaurant,http://tour-pedia.org/api/getPlaceDetails?id=28118,http://tour-pedia.org/api/getReviewsByPlaceId?placeId=28118
Nederhoven 3-7,Chinees Rest Happy Garden,27548,52.324608,4.8845762014389,Amsterdam,Chinese Restaurant,http://tour-pedia.org/api/getPlaceDetails?id=27548,http://tour-pedia.org/api/getReviewsByPlaceId?placeId=27548
Maasstraat,Chinees,27787,52.342114978334,4.8949799945522,Amsterdam,Chinese Restaurant,http://tour-pedia.org/api/getPlaceDetails?id=27787,http://tour-pedia.org/api/getReviewsByPlaceId?placeId=27787
Bogortuin 2,Chengdu - Spicy Hotpot,28122,52.377187283731,4.9366726050267,Amsterdam,Chinese Restaurant,http://tour-pedia.org/api/getPlaceDetails?id=28122,http://tour-pedia.org/api/getReviewsByPlaceId?placeId=28122
Bogortuin 2,Chengdu,28034,52.377206570431,4.936451050264,Amsterdam,Chinese Restaurant,http://tour-pedia.org/api/getPlaceDetails?id=28034,http://tour-pedia.org/api/getReviewsByPlaceId?placeId=28034
Meer en Vaart 179,Canton,26364,52.359992195653,4.8079681695203,Amsterdam,Chinese Restaurant,http://tour-pedia.org/api/getPlaceDetails?id=26364,http://tour-pedia.org/api/getReviewsByPlaceId?placeId=26364
,Yeah,28169,52.344189,4.928016,Amsterdam,Coffee Shop,http://tour-pedia.org/api/getPlaceDetails?id=28169,http://tour-pedia.org/api/getReviewsByPlaceId?placeId=28169
Van Leijenberghlaan 252,Werelds,27173,52.330513786772,4.8791742324829,Amsterdam,Coffee Shop,http://tour-pedia.org/api/getPlaceDetails?id=27173,http://tour-pedia.org/api/getReviewsByPlaceId?placeId=27173
J.P. Heijestraat 119A,Trakteren,26889,52.362573656605,4.8640904151877,Amsterdam,Coffee Shop,http://tour-pedia.org/api/getPlaceDetails?id=26889,http://tour-pedia.org/api/getReviewsByPlaceId?placeId=26889
,TMG Aspetto (Willem's Coffee corner) Centrale Hal / Lobby,26496,52.392563872219,4.8329099620158,Amsterdam,Coffee Shop,http://tour-pedia.org/api/getPlaceDetails?id=26496,http://tour-pedia.org/api/getReviewsByPlaceId?placeId=26496
,The Haven Starbucs,26206,52.412496,4.753746,Amsterdam,Coffee Shop,http://tour-pedia.org/api/getPlaceDetails?id=26206,http://tour-pedia.org/api/getReviewsByPlaceId?placeId=26206
,The Doors Coffee Shop,26979,52.378761400666,4.8723384418063,Amsterdam,Coffee Shop,http://tour-pedia.org/api/getPlaceDetails?id=26979,http://tour-pedia.org/api/getReviewsByPlaceId?placeId=26979
,The Coffeebrand,26709,52.351609,4.850217,Amsterdam,Coffee Shop,http://tour-pedia.org/api/getPlaceDetails?id=26709,http://tour-pedia.org/api/getReviewsByPlaceId?placeId=26709
Hoofddorpplein,The Coffee Brand,26702,52.351694,4.850121,Amsterdam,Coffee Shop,http://tour-pedia.org/api/getPlaceDetails?id=26702,http://tour-pedia.org/api/getReviewsByPlaceId?placeId=26702
Oudezijds Voorburgwal 220,The Bulldog Energy,27391,52.372311071264,4.896125793457,Amsterdam,Coffee Shop,http://tour-pedia.org/api/getPlaceDetails?id=27391,http://tour-pedia.org/api/getReviewsByPlaceId?placeId=27391
,Starbucks B/C Gates,26616,52.348443,4.841987,Amsterdam,Coffee Shop,http://tour-pedia.org/api/getPlaceDetails?id=26616,http://tour-pedia.org/api/getReviewsByPlaceId?placeId=26616
Orlyplein 103,Starbucks - Kiosk,26571,52.387785687759,4.8386427828992,Amsterdam,Coffee Shop,http://tour-pedia.org/api/getPlaceDetails?id=26571,http://tour-pedia.org/api/getReviewsByPlaceId?placeId=26571
Orlyplein 103,Starbucks,26553,52.389081419564,4.8376660324244,Amsterdam,Coffee Shop,http://tour-pedia.org/api/getPlaceDetails?id=26553,http://tour-pedia.org/api/getReviewsByPlaceId?placeId=26553
Overtoom 72-74,Starbucks,27126,52.362869601753,4.8759350486248,Amsterdam,Coffee Shop,http://tour-pedia.org/api/getPlaceDetails?id=27126,http://tour-pedia.org/api/getReviewsByPlaceId?placeId=27126
Leidsestraat 101,Starbucks,27120,52.364620402931,4.8835515975952,Amsterdam,Coffee Shop,http://tour-pedia.org/api/getPlaceDetails?id=27120,http://tour-pedia.org/api/getReviewsByPlaceId?placeId=27120
Oosterdoksstraat 4,Starbucks,27497,52.376797452553,4.9043247346824,Amsterdam,Coffee Shop,http://tour-pedia.org/api/getPlaceDetails?id=27497,http://tour-pedia.org/api/getReviewsByPlaceId?placeId=27497
Linnaeusstraat 83HS,Smoke Palace,27991,52.35962146469,4.9258332693118,Amsterdam,Coffee Shop,http://tour-pedia.org/api/getPlaceDetails?id=27991,http://tour-pedia.org/api/getReviewsByPlaceId?placeId=27991
Warmoesstraat 73HS,Sheeba,27726,52.374933,4.897649,Amsterdam,Coffee Shop,http://tour-pedia.org/api/getPlaceDetails?id=27726,http://tour-pedia.org/api/getReviewsByPlaceId?placeId=27726
Meer en Vaart 177A,Sensemilla,26371,52.360291460372,4.8075779534152,Amsterdam,Coffee Shop,http://tour-pedia.org/api/getPlaceDetails?id=26371,http://tour-pedia.org/api/getReviewsByPlaceId?placeId=26371
Hartenstraat 12,Screaming Beans,27252,52.3723,4.8861645,Amsterdam,Coffee Shop,http://tour-pedia.org/api/getPlaceDetails?id=27252,http://tour-pedia.org/api/getReviewsByPlaceId?placeId=27252
,Rsc amsterdam Store,26208,52.412460700068,4.7539727425022,Amsterdam,Coffee Shop,http://tour-pedia.org/api/getPlaceDetails?id=26208,http://tour-pedia.org/api/getReviewsByPlaceId?placeId=26208
,Risky Business,26749,52.380968,4.854072,Amsterdam,Coffee Shop,http://tour-pedia.org/api/getPlaceDetails?id=26749,http://tour-pedia.org/api/getReviewsByPlaceId?placeId=26749
Javaplein 27-A,Qahwa d'Or,28063,52.363559,4.939916,Amsterdam,Coffee Shop,http://tour-pedia.org/api/getPlaceDetails?id=28063,http://tour-pedia.org/api/getReviewsByPlaceId?placeId=28063
Haringpakkerssteeg 3,Prix d' Ami,27714,52.37679,4.897317,Amsterdam,Coffee Shop,http://tour-pedia.org/api/getPlaceDetails?id=27714,http://tour-pedia.org/api/getReviewsByPlaceId?placeId=27714
,Pluis & Muis,26606,52.357644466495,4.8425589251962,Amsterdam,Coffee Shop,http://tour-pedia.org/api/getPlaceDetails?id=26606,http://tour-pedia.org/api/getReviewsByPlaceId?placeId=26606
Spaklerweg 20,Peeze Coffee Corner,28111,52.33773,4.916279,Amsterdam,Coffee Shop,http://tour-pedia.org/api/getPlaceDetails?id=28111,http://tour-pedia.org/api/getReviewsByPlaceId?placeId=28111
,OG Appartementje,27774,52.343774522275,4.917626853105,Amsterdam,Coffee Shop,http://tour-pedia.org/api/getPlaceDetails?id=27774,http://tour-pedia.org/api/getReviewsByPlaceId?placeId=27774
Lindengracht 249,Moods,27099,52.379565,4.880568,Amsterdam,Coffee Shop,http://tour-pedia.org/api/getPlaceDetails?id=27099,http://tour-pedia.org/api/getReviewsByPlaceId?placeId=27099
Weesperzijde 190,micaffè,27749,52.345951984677,4.9163369443273,Amsterdam,Coffee Shop,http://tour-pedia.org/api/getPlaceDetails?id=27749,http://tour-pedia.org/api/getReviewsByPlaceId?placeId=27749
Wibautstraat 2 4,micaffé,27871,52.359078044825,4.9091668546847,Amsterdam,Coffee Shop,http://tour-pedia.org/api/getPlaceDetails?id=27871,http://tour-pedia.org/api/getReviewsByPlaceId?placeId=27871
,Meat 'n Eat,27162,52.337312316421,4.8755186343901,Amsterdam,Coffee Shop,http://tour-pedia.org/api/getPlaceDetails?id=27162,http://tour-pedia.org/api/getReviewsByPlaceId?placeId=27162
Waterlooplein 181,Lunchcafe Waterloo,27863,52.367963770372,4.9025289280807,Amsterdam,Coffee Shop,http://tour-pedia.org/api/getPlaceDetails?id=27863,http://tour-pedia.org/api/getReviewsByPlaceId?placeId=27863
Kinkerstraat 112,Lot Sixty One Coffee Roasters,26995,52.366813427999,4.8704221844673,Amsterdam,Coffee Shop,http://tour-pedia.org/api/getPlaceDetails?id=26995,http://tour-pedia.org/api/getReviewsByPlaceId?placeId=26995
,Loft,26674,52.372674,4.849407,Amsterdam,Coffee Shop,http://tour-pedia.org/api/getPlaceDetails?id=26674,http://tour-pedia.org/api/getReviewsByPlaceId?placeId=26674
Buikslotermeerplein 123,La Place,27925,52.399325,4.935949,Amsterdam,Coffee Shop,http://tour-pedia.org/api/getPlaceDetails?id=27925,http://tour-pedia.org/api/getReviewsByPlaceId?placeId=27925
Klaprozenweg 60,Koffiehuis De Klaproos,27453,52.400876036832,4.9017915186692,Amsterdam,Coffee Shop,http://tour-pedia.org/api/getPlaceDetails?id=27453,http://tour-pedia.org/api/getReviewsByPlaceId?placeId=27453
,Koffieautomaat 4e etage HvA,28003,52.337295060455,4.9285560839913,Amsterdam,Coffee Shop,http://tour-pedia.org/api/getPlaceDetails?id=28003,http://tour-pedia.org/api/getReviewsByPlaceId?placeId=28003
,Koffieautomaat 3e verdieping,28267,52.374231,4.966139,Amsterdam,Coffee Shop,http://tour-pedia.org/api/getPlaceDetails?id=28267,http://tour-pedia.org/api/getReviewsByPlaceId?placeId=28267
Linnaeuskade 1-a,Koffie in Oost,27885,52.355227979894,4.9288836121559,Amsterdam,Coffee Shop,http://tour-pedia.org/api/getPlaceDetails?id=27885,http://tour-pedia.org/api/getReviewsByPlaceId?placeId=27885
,Koffie Bij De Buren,26207,52.410124205929,4.7527391794806,Amsterdam,Coffee Shop,http://tour-pedia.org/api/getPlaceDetails?id=26207,http://tour-pedia.org/api/getReviewsByPlaceId?placeId=26207
Eerste van der Helststraat 70HS,Katsu,27642,52.354909307799,4.8933733416314,Amsterdam,Coffee Shop,http://tour-pedia.org/api/getPlaceDetails?id=27642,http://tour-pedia.org/api/getReviewsByPlaceId?placeId=27642
Schinkelhavenkade 6,Kade 6,26781,52.355879764851,4.8543378585101,Amsterdam,Coffee Shop,http://tour-pedia.org/api/getPlaceDetails?id=26781,http://tour-pedia.org/api/getReviewsByPlaceId?placeId=26781
Piet Heinkade 29,Ipo's Coffee Gallery,27830,52.377550964071,4.915759563446,Amsterdam,Coffee Shop,http://tour-pedia.org/api/getPlaceDetails?id=27830,http://tour-pedia.org/api/getReviewsByPlaceId?placeId=27830
,ING Aspretto,26639,52.386022,4.851275,Amsterdam,Coffee Shop,http://tour-pedia.org/api/getPlaceDetails?id=26639,http://tour-pedia.org/api/getReviewsByPlaceId?placeId=26639
David Ricardostraat,IBM Dynatos Coffee Corner,26480,52.341515788175,4.8273643368595,Amsterdam,Coffee Shop,http://tour-pedia.org/api/getPlaceDetails?id=26480,http://tour-pedia.org/api/getReviewsByPlaceId?placeId=26480
,IBM Coffee Corner,26476,52.34086908429,4.8299799918339,Amsterdam,Coffee Shop,http://tour-pedia.org/api/getPlaceDetails?id=26476,http://tour-pedia.org/api/getReviewsByPlaceId?placeId=26476
Warmoesstraat 24,Hunter's Coffeeshop,27716,52.375633985921,4.8985475692633,Amsterdam,Coffee Shop,http://tour-pedia.org/api/getPlaceDetails?id=27716,http://tour-pedia.org/api/getReviewsByPlaceId?placeId=27716
,House of Coffee (in Delta Lloyd Toorop gebouw),27772,52.343148832181,4.917271919009,Amsterdam,Coffee Shop,http://tour-pedia.org/api/getPlaceDetails?id=27772,http://tour-pedia.org/api/getReviewsByPlaceId?placeId=27772
,Hopsie flopsie in de zon,26569,52.388663,4.838264,Amsterdam,Coffee Shop,http://tour-pedia.org/api/getPlaceDetails?id=26569,http://tour-pedia.org/api/getReviewsByPlaceId?placeId=26569
Marnixstraat 74,Het Keteltje,27101,52.379620540168,4.8799638180474,Amsterdam,Coffee Shop,http://tour-pedia.org/api/getPlaceDetails?id=27101,http://tour-pedia.org/api/getReviewsByPlaceId?placeId=27101
Haarlemmermeerstation,Good Day Coffee,26815,52.349321,4.85696,Amsterdam,Coffee Shop,http://tour-pedia.org/api/getPlaceDetails?id=26815,http://tour-pedia.org/api/getReviewsByPlaceId?placeId=26815
Kloveniersburgwal 42HS,Goa Coffeeshop,27867,52.371170475626,4.8987904219153,Amsterdam,Coffee Shop,http://tour-pedia.org/api/getPlaceDetails?id=27867,http://tour-pedia.org/api/getReviewsByPlaceId?placeId=27867
Stadionweg 100,Fidelio,27151,52.346986,4.876897,Amsterdam,Coffee Shop,http://tour-pedia.org/api/getPlaceDetails?id=27151,http://tour-pedia.org/api/getReviewsByPlaceId?placeId=27151
Buikslotermeerplein,Favori Cafe Restaurant,27926,52.398966562141,4.936513173144,Amsterdam,Coffee Shop,http://tour-pedia.org/api/getPlaceDetails?id=27926,http://tour-pedia.org/api/getReviewsByPlaceId?placeId=27926
IJburglaan 1489,Espressofabriek IJburg,26159,52.35202027388,5.0016009807587,Amsterdam,Coffee Shop,http://tour-pedia.org/api/getPlaceDetails?id=26159,http://tour-pedia.org/api/getReviewsByPlaceId?placeId=26159
Science Park 904,Espressobar 'Academisch Kwartier',28218,52.354715,4.955735,Amsterdam,Coffee Shop,http://tour-pedia.org/api/getPlaceDetails?id=28218,http://tour-pedia.org/api/getReviewsByPlaceId?placeId=28218
,Downtown,28198,52.372852325439,4.9491934776306,Amsterdam,Coffee Shop,http://tour-pedia.org/api/getPlaceDetails?id=28198,http://tour-pedia.org/api/getReviewsByPlaceId?placeId=28198
Harry Banninkstraat 1,Douwe Egberts,27832,52.3760299721,4.9067286899962,Amsterdam,Coffee Shop,http://tour-pedia.org/api/getPlaceDetails?id=27832,http://tour-pedia.org/api/getReviewsByPlaceId?placeId=27832
Lodewijk van Deysselstraat 37,de Watersnip,26399,52.375859,4.811812,Amsterdam,Coffee Shop,http://tour-pedia.org/api/getPlaceDetails?id=26399,http://tour-pedia.org/api/getReviewsByPlaceId?placeId=26399
Buikslotermeerplein 234,De Melangerie Koffie en Thee,28016,52.397810398157,4.9383974075317,Amsterdam,Coffee Shop,http://tour-pedia.org/api/getPlaceDetails?id=28016,http://tour-pedia.org/api/getReviewsByPlaceId?placeId=28016
Rietwijkerstraat 30,De Kroon 3,26726,52.349125190663,4.842361915729,Amsterdam,Coffee Shop,http://tour-pedia.org/api/getPlaceDetails?id=26726,http://tour-pedia.org/api/getReviewsByPlaceId?placeId=26726
Eerste van der Helststraat 66,De Koffie Salon,27409,52.354971,4.8933949875,Amsterdam,Coffee Shop,http://tour-pedia.org/api/getPlaceDetails?id=27409,http://tour-pedia.org/api/getReviewsByPlaceId?placeId=27409
,De Brooodzaak,26923,52.337303253655,4.8612362695981,Amsterdam,Coffee Shop,http://tour-pedia.org/api/getPlaceDetails?id=26923,http://tour-pedia.org/api/getReviewsByPlaceId?placeId=26923
Spaarndammerdijk 17,Coffeeshop Heavenly,27077,52.391835,4.878015,Amsterdam,Coffee Shop,http://tour-pedia.org/api/getPlaceDetails?id=27077,http://tour-pedia.org/api/getReviewsByPlaceId?placeId=27077
Dapperstraat 2,Coffeeshop Happy People,28053,52.365427,4.9260270595551,Amsterdam,Coffee Shop,http://tour-pedia.org/api/getPlaceDetails?id=28053,http://tour-pedia.org/api/getReviewsByPlaceId?placeId=28053
Slotermeerlaan 103,CoffeeMania Slotermeer,26438,52.380830852205,4.8208712253453,Amsterdam,Coffee Shop,http://tour-pedia.org/api/getPlaceDetails?id=26438,http://tour-pedia.org/api/getReviewsByPlaceId?placeId=26438
Slotermeerlaan 103,Coffeemania,26462,52.37916840052,4.8210024326763,Amsterdam,Coffee Shop,http://tour-pedia.org/api/getPlaceDetails?id=26462,http://tour-pedia.org/api/getReviewsByPlaceId?placeId=26462
Jacob Bontiusplaats 9,Coffeecorner,28139,52.371395728571,4.927777,Amsterdam,Coffee Shop,http://tour-pedia.org/api/getPlaceDetails?id=28139,http://tour-pedia.org/api/getReviewsByPlaceId?placeId=28139
Amstelstraat 5,CoffeeCompany,27413,52.366444,4.897749,Amsterdam,Coffee Shop,http://tour-pedia.org/api/getPlaceDetails?id=27413,http://tour-pedia.org/api/getReviewsByPlaceId?placeId=27413
Koningin Wilhelminaplein 60-62,Coffee@Last,26598,52.353353,4.840407,Amsterdam,Coffee Shop,http://tour-pedia.org/api/getPlaceDetails?id=26598,http://tour-pedia.org/api/getReviewsByPlaceId?placeId=26598
Clercqstraat 27,Coffee Plaza DaCosta,26989,52.371289031256,4.8723492384258,Amsterdam,Coffee Shop,http://tour-pedia.org/api/getPlaceDetails?id=26989,http://tour-pedia.org/api/getReviewsByPlaceId?placeId=26989
,Coffee Cube ING House,26820,52.33754395945,4.8572184662761,Amsterdam,Coffee Shop,http://tour-pedia.org/api/getPlaceDetails?id=26820,http://tour-pedia.org/api/getReviewsByPlaceId?placeId=26820
,Coffee Corner Medische Faculteit,26915,52.333206,4.862302,Amsterdam,Coffee Shop,http://tour-pedia.org/api/getPlaceDetails?id=26915,http://tour-pedia.org/api/getReviewsByPlaceId?placeId=26915
Zeeburgerpad 1,Coffee Company Branderij,27962,52.366842341459,4.927098809078,Amsterdam,Coffee Shop,http://tour-pedia.org/api/getPlaceDetails?id=27962,http://tour-pedia.org/api/getReviewsByPlaceId?placeId=27962
Thomas R. Malthusstraat 5,Coffee Company,26477,52.340061168992,4.8225655111818,Amsterdam,Coffee Shop,http://tour-pedia.org/api/getPlaceDetails?id=26477,http://tour-pedia.org/api/getReviewsByPlaceId?placeId=26477
Nieuwe Doelenstraat 24,Coffee Company,27625,52.368230120234,4.8960628489377,Amsterdam,Coffee Shop,http://tour-pedia.org/api/getPlaceDetails?id=27625,http://tour-pedia.org/api/getReviewsByPlaceId?placeId=27625
Waterlooplein 129,Coffee Company,27737,52.368433,4.9020750940893,Amsterdam,Coffee Shop,http://tour-pedia.org/api/getPlaceDetails?id=27737,http://tour-pedia.org/api/getReviewsByPlaceId?placeId=27737
Rijnstraat 32,Coffee Company,27514,52.347478835856,4.904745593655,Amsterdam,Coffee Shop,http://tour-pedia.org/api/getPlaceDetails?id=27514,http://tour-pedia.org/api/getReviewsByPlaceId?placeId=27514
Zeeburgerpad 1,Coffee Company,27961,52.366828903097,4.9271613585175,Amsterdam,Coffee Shop,http://tour-pedia.org/api/getPlaceDetails?id=27961,http://tour-pedia.org/api/getReviewsByPlaceId?placeId=27961
Boelelaan 1105,COFFEE & TEA,26927,52.334613,4.866401,Amsterdam,Coffee Shop,http://tour-pedia.org/api/getPlaceDetails?id=26927,http://tour-pedia.org/api/getReviewsByPlaceId?placeId=26927
Amstelveenseweg 170A,Coffee & Paste,26790,52.352993,4.856201,Amsterdam,Coffee Shop,http://tour-pedia.org/api/getPlaceDetails?id=26790,http://tour-pedia.org/api/getReviewsByPlaceId?placeId=26790
Plantage Middenlaan 44,Coffee & Art,27848,52.366173896316,4.912809549655,Amsterdam,Coffee Shop,http://tour-pedia.org/api/getPlaceDetails?id=27848,http://tour-pedia.org/api/getReviewsByPlaceId?placeId=27848
,Chocolate Company,27900,52.347860149962,4.9047436002936,Amsterdam,Coffee Shop,http://tour-pedia.org/api/getPlaceDetails?id=27900,http://tour-pedia.org/api/getReviewsByPlaceId?placeId=27900
Rijnstraat 22,Casa Brazuca,27639,52.347981560534,4.9045559820016,Amsterdam,Coffee Shop,http://tour-pedia.org/api/getPlaceDetails?id=27639,http://tour-pedia.org/api/getReviewsByPlaceId?placeId=27639
Comeniusstraat,Café Vienna,26512,52.359224,4.828293,Amsterdam,Coffee Shop,http://tour-pedia.org/api/getPlaceDetails?id=26512,http://tour-pedia.org/api/getReviewsByPlaceId?placeId=26512
Katrijpstraat 301,Bros Coffeeshop,28192,52.392494020677,4.95279,Amsterdam,Coffee Shop,http://tour-pedia.org/api/getPlaceDetails?id=28192,http://tour-pedia.org/api/getReviewsByPlaceId?placeId=28192
Buikslotermeerplein 110,Broodje Robben,28013,52.39840894484,4.9358712034831,Amsterdam,Coffee Shop,http://tour-pedia.org/api/getPlaceDetails?id=28013,http://tour-pedia.org/api/getReviewsByPlaceId?placeId=28013
,Brasserij BovenY ziekenhuis,27678,52.404735868343,4.9222990752502,Amsterdam,Coffee Shop,http://tour-pedia.org/api/getPlaceDetails?id=27678,http://tour-pedia.org/api/getReviewsByPlaceId?placeId=27678
De Boelelaan 1117,Brasserie Poli VUmc,26826,52.335357571304,4.8599035470362,Amsterdam,Coffee Shop,http://tour-pedia.org/api/getPlaceDetails?id=26826,http://tour-pedia.org/api/getReviewsByPlaceId?placeId=26826
Baarsjesweg 239,Boerejongens,26785,52.362244,4.857498,Amsterdam,Coffee Shop,http://tour-pedia.org/api/getPlaceDetails?id=26785,http://tour-pedia.org/api/getReviewsByPlaceId?placeId=26785
Valeriusplein 4A,Biscuit,26899,52.352856,4.863699,Amsterdam,Coffee Shop,http://tour-pedia.org/api/getPlaceDetails?id=26899,http://tour-pedia.org/api/getReviewsByPlaceId?placeId=26899
Eerste Oosterparkstraat 91,Beter & Leuk,27989,52.356215,4.91032,Amsterdam,Coffee Shop,http://tour-pedia.org/api/getPlaceDetails?id=27989,http://tour-pedia.org/api/getReviewsByPlaceId?placeId=27989
Niasstraat 1HS,Best Friends,28210,52.365001,4.939708,Amsterdam,Coffee Shop,http://tour-pedia.org/api/getPlaceDetails?id=28210,http://tour-pedia.org/api/getReviewsByPlaceId?placeId=28210
Gravenstraat 9,Barraka,27270,52.374241492329,4.8924771139711,Amsterdam,Coffee Shop,http://tour-pedia.org/api/getPlaceDetails?id=27270,http://tour-pedia.org/api/getReviewsByPlaceId?placeId=27270
Parlevinker 8,Atlas,27920,52.400879200397,4.9363815224122,Amsterdam,Coffee Shop,http://tour-pedia.org/api/getPlaceDetails?id=27920,http://tour-pedia.org/api/getReviewsByPlaceId?placeId=27920
in Park Frankendael,At the Parq,28093,52.351516,4.929075,Amsterdam,Coffee Shop,http://tour-pedia.org/api/getPlaceDetails?id=28093,http://tour-pedia.org/api/getReviewsByPlaceId?placeId=28093
De Boelelaan 1105,aspretto,26916,52.334501962128,4.8664193431875,Amsterdam,Coffee Shop,http://tour-pedia.org/api/getPlaceDetails?id=26916,http://tour-pedia.org/api/getReviewsByPlaceId?placeId=26916
Amstelveenseweg 196,Anne&Max Amsterdam,26797,52.352044474653,4.8562613149971,Amsterdam,Coffee Shop,http://tour-pedia.org/api/getPlaceDetails?id=26797,http://tour-pedia.org/api/getReviewsByPlaceId?placeId=26797
,Amsterdam Expresso,26710,52.343185266253,4.8448866568993,Amsterdam,Coffee Shop,http://tour-pedia.org/api/getPlaceDetails?id=26710,http://tour-pedia.org/api/getReviewsByPlaceId?placeId=26710
"SLAZ, Jan Tooropstraat 164",Albron Food & Shop,26580,52.371447051561,4.839456559731,Amsterdam,Coffee Shop,http://tour-pedia.org/api/getPlaceDetails?id=26580,http://tour-pedia.org/api/getReviewsByPlaceId?placeId=26580
,Wendy,27670,52.327686,4.882884,Amsterdam,Cupcake Shop,http://tour-pedia.org/api/getPlaceDetails?id=27670,http://tour-pedia.org/api/getReviewsByPlaceId?placeId=27670
Overamstelstraat 117,Sweets Marie,27997,52.350860331044,4.9137425422668,Amsterdam,Cupcake Shop,http://tour-pedia.org/api/getPlaceDetails?id=27997,http://tour-pedia.org/api/getReviewsByPlaceId?placeId=27997
Tussen Meer 56,Multi-Vlaai,26335,52.3584605,4.801032,Amsterdam,Cupcake Shop,http://tour-pedia.org/api/getPlaceDetails?id=26335,http://tour-pedia.org/api/getReviewsByPlaceId?placeId=26335
Van Leijenberghlaan 212,Multi-Vlaai,27192,52.331005514696,4.8794177942842,Amsterdam,Cupcake Shop,http://tour-pedia.org/api/getPlaceDetails?id=27192,http://tour-pedia.org/api/getReviewsByPlaceId?placeId=27192
,Multi-Vlaai,28247,52.343008618254,4.9573230743408,Amsterdam,Cupcake Shop,http://tour-pedia.org/api/getPlaceDetails?id=28247,http://tour-pedia.org/api/getReviewsByPlaceId?placeId=28247
Laplacestraat 60,Kookkanje Kookstudio,28229,52.354989,4.939384,Amsterdam,Cupcake Shop,http://tour-pedia.org/api/getPlaceDetails?id=28229,http://tour-pedia.org/api/getReviewsByPlaceId?placeId=28229
Eerste van Swindenstraat 12-14,De Leukste Taartenshop,28146,52.362161608021,4.9250490017882,Amsterdam,Cupcake Shop,http://tour-pedia.org/api/getPlaceDetails?id=28146,http://tour-pedia.org/api/getReviewsByPlaceId?placeId=28146
,Wild Bean Cafe,26839,52.392698625727,4.8650358084555,Amsterdam,Deli / Bodega,http://tour-pedia.org/api/getPlaceDetails?id=26839,http://tour-pedia.org/api/getReviewsByPlaceId?placeId=26839
Nieuwpoortkade 2A,Wat verder ter tafel komt,26838,52.384689,4.859094,Amsterdam,Deli / Bodega,http://tour-pedia.org/api/getPlaceDetails?id=26838,http://tour-pedia.org/api/getReviewsByPlaceId?placeId=26838
"Tussen Meer 337, 1069 Amsterdam",Slagerij C.J. van den Ban,26277,52.359027567348,4.7886765548688,Amsterdam,Deli / Bodega,http://tour-pedia.org/api/getPlaceDetails?id=26277,http://tour-pedia.org/api/getReviewsByPlaceId?placeId=26277
,Semifredo,27583,52.389691,4.910329,Amsterdam,Deli / Bodega,http://tour-pedia.org/api/getPlaceDetails?id=27583,http://tour-pedia.org/api/getReviewsByPlaceId?placeId=27583
Beemsterstraat 340,Saya Avondwinkel,28191,52.393751398677,4.9505424499512,Amsterdam,Deli / Bodega,http://tour-pedia.org/api/getPlaceDetails?id=28191,http://tour-pedia.org/api/getReviewsByPlaceId?placeId=28191
Jan Pieter Heijestraat 128HS,Saffraan,26890,52.362281,4.864275,Amsterdam,Deli / Bodega,http://tour-pedia.org/api/getPlaceDetails?id=26890,http://tour-pedia.org/api/getReviewsByPlaceId?placeId=26890
Buikslotermeerplein,Roberto's Italiaanse delicatessen,28010,52.399656464723,4.9356937408447,Amsterdam,Deli / Bodega,http://tour-pedia.org/api/getPlaceDetails?id=28010,http://tour-pedia.org/api/getReviewsByPlaceId?placeId=28010
Pieter Calandlaan 75,Pronk Culinair,26524,52.356171430943,4.8287604721922,Amsterdam,Deli / Bodega,http://tour-pedia.org/api/getPlaceDetails?id=26524,http://tour-pedia.org/api/getReviewsByPlaceId?placeId=26524
C van Eesterenkaan 21-23,Oceaan Deli,28033,52.372998225679,4.938351828626,Amsterdam,Deli / Bodega,http://tour-pedia.org/api/getPlaceDetails?id=28033,http://tour-pedia.org/api/getReviewsByPlaceId?placeId=28033
Spaklerweg 20,Nuon Winkeltje,28109,52.337415,4.916747,Amsterdam,Deli / Bodega,http://tour-pedia.org/api/getPlaceDetails?id=28109,http://tour-pedia.org/api/getReviewsByPlaceId?placeId=28109
Isolatorweg 36,Musicalkantine,26649,52.393621554869,4.8507802838314,Amsterdam,Deli / Bodega,http://tour-pedia.org/api/getPlaceDetails?id=26649,http://tour-pedia.org/api/getReviewsByPlaceId?placeId=26649
Gallileiplantsoen 94,Meer Winkel,28075,52.354605,4.941327,Amsterdam,Deli / Bodega,http://tour-pedia.org/api/getPlaceDetails?id=28075,http://tour-pedia.org/api/getReviewsByPlaceId?placeId=28075
Waddenweg 7,La Nuit Avondwinkel,27815,52.391718028571,4.925579,Amsterdam,Deli / Bodega,http://tour-pedia.org/api/getPlaceDetails?id=27815,http://tour-pedia.org/api/getReviewsByPlaceId?placeId=27815
,Il Ponte,27706,52.381505740595,4.9088795972325,Amsterdam,Deli / Bodega,http://tour-pedia.org/api/getPlaceDetails?id=27706,http://tour-pedia.org/api/getReviewsByPlaceId?placeId=27706
Osdorpplein 627,Het Warme Notengilde,26362,52.359011634783,4.8042497215653,Amsterdam,Deli / Bodega,http://tour-pedia.org/api/getPlaceDetails?id=26362,http://tour-pedia.org/api/getReviewsByPlaceId?placeId=26362
Utrechtsestraat 17,George Deli U.S.A.,27733,52.36553758872,4.8979067802429,Amsterdam,Deli / Bodega,http://tour-pedia.org/api/getPlaceDetails?id=27733,http://tour-pedia.org/api/getReviewsByPlaceId?placeId=27733
,Erik op mijn fiets,26469,52.354617,4.806928,Amsterdam,Deli / Bodega,http://tour-pedia.org/api/getPlaceDetails?id=26469,http://tour-pedia.org/api/getReviewsByPlaceId?placeId=26469
Isolatorweg 36,DUTCH studio's & catering,26638,52.393942,4.850645,Amsterdam,Deli / Bodega,http://tour-pedia.org/api/getPlaceDetails?id=26638,http://tour-pedia.org/api/getReviewsByPlaceId?placeId=26638
Eerste van der Helststraat 27,De Wasserette,27408,52.355904273398,4.8929054210436,Amsterdam,Deli / Bodega,http://tour-pedia.org/api/getPlaceDetails?id=27408,http://tour-pedia.org/api/getReviewsByPlaceId?placeId=27408
IJburglaan 1501,De Keuken van Tante Til,26180,52.351620523007,5.0024271011353,Amsterdam,Deli / Bodega,http://tour-pedia.org/api/getPlaceDetails?id=26180,http://tour-pedia.org/api/getReviewsByPlaceId?placeId=26180
Hogeweg 1A,C'est Bon,28091,52.354050656308,4.9309883407203,Amsterdam,Deli / Bodega,http://tour-pedia.org/api/getPlaceDetails?id=28091,http://tour-pedia.org/api/getReviewsByPlaceId?placeId=28091
uiterwaardenstraat,'t Stolwijkertje,27778,52.342986212775,4.9068393614809,Amsterdam,Deli / Bodega,http://tour-pedia.org/api/getPlaceDetails?id=27778,http://tour-pedia.org/api/getReviewsByPlaceId?placeId=27778
,Seyidoglu Istanbul Baklava & Patisserie,26667,52.378622485896,4.8498921262196,Amsterdam,Dessert Shop,http://tour-pedia.org/api/getPlaceDetails?id=26667,http://tour-pedia.org/api/getReviewsByPlaceId?placeId=26667
Bernard Loderstraat 15,Şerifoğlu Gaziantep Baklavacısı,26397,52.380707699366,4.8201656341553,Amsterdam,Dessert Shop,http://tour-pedia.org/api/getPlaceDetails?id=26397,http://tour-pedia.org/api/getReviewsByPlaceId?placeId=26397
,Poffertjeskraam Buikslotermeerplein,27931,52.398973851473,4.9374786028984,Amsterdam,Dessert Shop,http://tour-pedia.org/api/getPlaceDetails?id=27931,http://tour-pedia.org/api/getReviewsByPlaceId?placeId=27931
Westerpark,Ijscuypje,26962,52.386382274399,4.8722806916468,Amsterdam,Dessert Shop,http://tour-pedia.org/api/getPlaceDetails?id=26962,http://tour-pedia.org/api/getReviewsByPlaceId?placeId=26962
Reguliersbreestraat 7,Güllüoglu,27624,52.367058580263,4.8940401646946,Amsterdam,Dessert Shop,http://tour-pedia.org/api/getPlaceDetails?id=27624,http://tour-pedia.org/api/getReviewsByPlaceId?placeId=27624
Olympiaplein 111,Fromagerie L'amuse,26905,52.346054,4.864864,Amsterdam,Dessert Shop,http://tour-pedia.org/api/getPlaceDetails?id=26905,http://tour-pedia.org/api/getReviewsByPlaceId?placeId=26905
Javastraat 121,Divan Pastanesi,28143,52.363899,4.937811,Amsterdam,Dessert Shop,http://tour-pedia.org/api/getPlaceDetails?id=28143,http://tour-pedia.org/api/getReviewsByPlaceId?placeId=28143
,New King Mandarin Cuisine,27663,52.328717110874,4.9102978686745,Amsterdam,Dim Sum Restaurant,http://tour-pedia.org/api/getPlaceDetails?id=27663,http://tour-pedia.org/api/getReviewsByPlaceId?placeId=27663
,wonder bar three,26444,52.383606193491,4.8193917194117,Amsterdam,Diner,http://tour-pedia.org/api/getPlaceDetails?id=26444,http://tour-pedia.org/api/getReviewsByPlaceId?placeId=26444
Aalsmeerweg 91,Warung Barokah,26721,52.348303,4.84772235,Amsterdam,Diner,http://tour-pedia.org/api/getPlaceDetails?id=26721,http://tour-pedia.org/api/getReviewsByPlaceId?placeId=26721
Papaverweg 46,Waargenoegen,27456,52.397994,4.904912,Amsterdam,Diner,http://tour-pedia.org/api/getPlaceDetails?id=27456,http://tour-pedia.org/api/getReviewsByPlaceId?placeId=27456
,The Lighthouse,26192,52.353716192579,5.0063418504138,Amsterdam,Diner,http://tour-pedia.org/api/getPlaceDetails?id=26192,http://tour-pedia.org/api/getReviewsByPlaceId?placeId=26192
,Silodam 465a,27459,52.391043817201,4.8904979996804,Amsterdam,Diner,http://tour-pedia.org/api/getPlaceDetails?id=27459,http://tour-pedia.org/api/getReviewsByPlaceId?placeId=27459
,Restaurant Sinfonia,27186,52.326877,4.879676,Amsterdam,Diner,http://tour-pedia.org/api/getPlaceDetails?id=27186,http://tour-pedia.org/api/getReviewsByPlaceId?placeId=27186
Overtoom,Restaurant Buuf,26773,52.358259737955,4.8574431099614,Amsterdam,Diner,http://tour-pedia.org/api/getPlaceDetails?id=26773,http://tour-pedia.org/api/getReviewsByPlaceId?placeId=26773
Nieuwmarkt 24HS,Poco Loco,27853,52.372490144128,4.8998540850283,Amsterdam,Diner,http://tour-pedia.org/api/getPlaceDetails?id=27853,http://tour-pedia.org/api/getReviewsByPlaceId?placeId=27853
Krijn Taconiskade 124,NAP Amsterdam,26155,52.352924614972,5.0033926963806,Amsterdam,Diner,http://tour-pedia.org/api/getPlaceDetails?id=26155,http://tour-pedia.org/api/getReviewsByPlaceId?placeId=26155
GROEN VAN PRINSTERERSTRAAT 27,Mét smaak,26972,52.383733237976,4.8720824718475,Amsterdam,Diner,http://tour-pedia.org/api/getPlaceDetails?id=26972,http://tour-pedia.org/api/getReviewsByPlaceId?placeId=26972
,Mesken ijburg,26202,52.351532,5.00241,Amsterdam,Diner,http://tour-pedia.org/api/getPlaceDetails?id=26202,http://tour-pedia.org/api/getReviewsByPlaceId?placeId=26202
,Meininger Guest Kitchen,26547,52.390718,4.836724,Amsterdam,Diner,http://tour-pedia.org/api/getPlaceDetails?id=26547,http://tour-pedia.org/api/getReviewsByPlaceId?placeId=26547
Parlevinker 6,Maxi Grillbar,27677,52.411625,4.922346,Amsterdam,Diner,http://tour-pedia.org/api/getPlaceDetails?id=27677,http://tour-pedia.org/api/getReviewsByPlaceId?placeId=27677
,Le Blanc Cuisine,26971,52.384006,4.874902,Amsterdam,Diner,http://tour-pedia.org/api/getPlaceDetails?id=26971,http://tour-pedia.org/api/getReviewsByPlaceId?placeId=26971
Subang Parade,Kenny Rogers,26635,52.385501,4.8377784,Amsterdam,Diner,http://tour-pedia.org/api/getPlaceDetails?id=26635,http://tour-pedia.org/api/getReviewsByPlaceId?placeId=26635
"Danzigerkade 19, 1013 Amsterdam",Hot ITem kantine,27054,52.39986953668,4.8763666683207,Amsterdam,Diner,http://tour-pedia.org/api/getPlaceDetails?id=27054,http://tour-pedia.org/api/getReviewsByPlaceId?placeId=27054
Borneosteiger 1,Harbor Lounge NL,28131,52.371568714321,4.9358945831104,Amsterdam,Diner,http://tour-pedia.org/api/getPlaceDetails?id=28131,http://tour-pedia.org/api/getReviewsByPlaceId?placeId=28131
Nachtwachtlaan,Fashion Café,26599,52.354907596658,4.840539379955,Amsterdam,Diner,http://tour-pedia.org/api/getPlaceDetails?id=26599,http://tour-pedia.org/api/getReviewsByPlaceId?placeId=26599
,Eten3,26646,52.385464,4.843758,Amsterdam,Diner,http://tour-pedia.org/api/getPlaceDetails?id=26646,http://tour-pedia.org/api/getReviewsByPlaceId?placeId=26646
Bos en Lommerweg 361,Eenmaal One-person Restaurant,26577,52.377420374897,4.8404613789579,Amsterdam,Diner,http://tour-pedia.org/api/getPlaceDetails?id=26577,http://tour-pedia.org/api/getReviewsByPlaceId?placeId=26577
,Deb's Specialiteiten,28231,52.358071567044,4.9408681551505,Amsterdam,Diner,http://tour-pedia.org/api/getPlaceDetails?id=28231,http://tour-pedia.org/api/getReviewsByPlaceId?placeId=28231
tt. Vasumweg 59,De Brasserie i.o.,27203,52.405083,4.891119,Amsterdam,Diner,http://tour-pedia.org/api/getPlaceDetails?id=27203,http://tour-pedia.org/api/getReviewsByPlaceId?placeId=27203
Gerrie Knetemanlaan 170,Coco's Laan van Spartaan,26582,52.373906,4.841148,Amsterdam,Diner,http://tour-pedia.org/api/getPlaceDetails?id=26582,http://tour-pedia.org/api/getReviewsByPlaceId?placeId=26582
,By Ons,27549,52.330848640927,4.8773382692147,Amsterdam,Diner,http://tour-pedia.org/api/getPlaceDetails?id=27549,http://tour-pedia.org/api/getReviewsByPlaceId?placeId=27549
H.j.e Wenckenbachweg 180,Brasserie DNA (De Nieuwe Afspraak),28005,52.335750872379,4.935151480253,Amsterdam,Diner,http://tour-pedia.org/api/getPlaceDetails?id=28005,http://tour-pedia.org/api/getReviewsByPlaceId?placeId=28005
Buikslotermeerplein 537,Brasserie 't Plein,28025,52.397819669238,4.9409462209131,Amsterdam,Diner,http://tour-pedia.org/api/getPlaceDetails?id=28025,http://tour-pedia.org/api/getReviewsByPlaceId?placeId=28025
Linnaeusstraat 63,Boom,27976,52.360447,4.925255,Amsterdam,Diner,http://tour-pedia.org/api/getPlaceDetails?id=27976,http://tour-pedia.org/api/getReviewsByPlaceId?placeId=27976
,Booking Canteen,27618,52.366093298689,4.8983829126431,Amsterdam,Diner,http://tour-pedia.org/api/getPlaceDetails?id=27618,http://tour-pedia.org/api/getReviewsByPlaceId?placeId=27618
,Boergondineren,28195,52.394755,4.953385,Amsterdam,Diner,http://tour-pedia.org/api/getPlaceDetails?id=28195,http://tour-pedia.org/api/getReviewsByPlaceId?placeId=28195
Helicopterstraat 13-15,50-50 Food & Catering,26722,52.341658350164,4.8447346687317,Amsterdam,Diner,http://tour-pedia.org/api/getPlaceDetails?id=26722,http://tour-pedia.org/api/getReviewsByPlaceId?placeId=26722
,Gooische Bierbrouwerij (A'dam),28235,52.358525093743,4.9369971890598,Amsterdam,Distillery,http://tour-pedia.org/api/getPlaceDetails?id=28235,http://tour-pedia.org/api/getReviewsByPlaceId?placeId=28235
Flevopark 13,Distilleerderij 't Nieuwe Diep,28145,52.361990112402,4.9501013491143,Amsterdam,Distillery,http://tour-pedia.org/api/getPlaceDetails?id=28145,http://tour-pedia.org/api/getReviewsByPlaceId?placeId=28145
,In De Keet Van De 3 Dikste Collega's,26936,52.41795,4.873418211937,Amsterdam,Donut Shop,http://tour-pedia.org/api/getPlaceDetails?id=26936,http://tour-pedia.org/api/getReviewsByPlaceId?placeId=26936
