address,id,lat,lng,location,name,subCategory,details,reviews
10 rue des Immeubles Industriels,87572,48.84953114483,2.3928544226342,Paris,Arcade Street,Arcade,http://tour-pedia.org/api/getPlaceDetails?id=87572,http://tour-pedia.org/api/getReviewsByPlaceId?placeId=87572
Cour Bérard,91835,48.854308646341,2.3662394285202,Paris,#Appartement4,Arcade,http://tour-pedia.org/api/getPlaceDetails?id=91835,http://tour-pedia.org/api/getReviewsByPlaceId?placeId=91835
Parc de la Villette,83573,48.890631905558,2.3900761307413,Paris,Pavillon Paul Delouvrier,Art Gallery,http://tour-pedia.org/api/getPlaceDetails?id=83573,http://tour-pedia.org/api/getReviewsByPlaceId?placeId=83573
7 rond-point des Champs-Élysées,83609,48.868614071405,2.3088401556015,Paris,Artcurial,Art Gallery,http://tour-pedia.org/api/getPlaceDetails?id=83609,http://tour-pedia.org/api/getReviewsByPlaceId?placeId=83609
60 Rue de Bassano,84235,48.871659203246,2.3003911972046,Paris,Espace Culturel Louis Vuitton,Art Gallery,http://tour-pedia.org/api/getPlaceDetails?id=84235,http://tour-pedia.org/api/getReviewsByPlaceId?placeId=84235
2 Rue Charles Nodier,84982,48.884372979613,2.3449059296629,Paris,Marché Saint-Pierre,Art Gallery,http://tour-pedia.org/api/getPlaceDetails?id=84982,http://tour-pedia.org/api/getReviewsByPlaceId?placeId=84982
48 Rue Vieille du Temple,85938,48.858238266037,2.358552493322,Paris,L'Espace des Blancs-Manteaux,Art Gallery,http://tour-pedia.org/api/getPlaceDetails?id=85938,http://tour-pedia.org/api/getReviewsByPlaceId?placeId=85938
7bis rue René Goscinny,87863,48.830801685139,2.3801647866044,Paris,Galerie Itinerrance,Art Gallery,http://tour-pedia.org/api/getPlaceDetails?id=87863,http://tour-pedia.org/api/getReviewsByPlaceId?placeId=87863
12 rue Cantagrel,88238,48.823472446056,2.3764735307265,Paris,Cité-Refuge De L'Armée Du Salut Le Corbusier,Art Gallery,http://tour-pedia.org/api/getPlaceDetails?id=88238,http://tour-pedia.org/api/getReviewsByPlaceId?placeId=88238
Berges de Seine,88861,48.862290116178,2.2987466597392,Paris,Photoquai,Art Gallery,http://tour-pedia.org/api/getPlaceDetails?id=88861,http://tour-pedia.org/api/getReviewsByPlaceId?placeId=88861
,90031,48.886913299561,2.3470764160156,Paris,La Splendens Factory,Art Gallery,http://tour-pedia.org/api/getPlaceDetails?id=90031,http://tour-pedia.org/api/getReviewsByPlaceId?placeId=90031
91 Rue De l'assomption,91773,48.855155944824,2.2669901847839,Paris,fondation hippocrene,Art Gallery,http://tour-pedia.org/api/getPlaceDetails?id=91773,http://tour-pedia.org/api/getReviewsByPlaceId?placeId=91773
Place Georges Pompidou,83523,48.860592808297,2.3524475097656,Paris,Centre Pompidou - Musée National d'Art Moderne,Art Museum,http://tour-pedia.org/api/getPlaceDetails?id=83523,http://tour-pedia.org/api/getReviewsByPlaceId?placeId=83523
5 Rue de Thorigny,83596,48.85950579824,2.3620820045471,Paris,Musée National Picasso,Art Museum,http://tour-pedia.org/api/getPlaceDetails?id=83596,http://tour-pedia.org/api/getReviewsByPlaceId?placeId=83596
2 Impasse Lebouis,83612,48.836886515133,2.3220049379276,Paris,Fondation Henri Cartier-Bresson,Art Museum,http://tour-pedia.org/api/getPlaceDetails?id=83612,http://tour-pedia.org/api/getReviewsByPlaceId?placeId=83612
11 Rue Payenne,84593,48.858303348474,2.3619621581951,Paris,Institut Suédois | Svenska Institutet i Paris,Art Museum,http://tour-pedia.org/api/getPlaceDetails?id=84593,http://tour-pedia.org/api/getReviewsByPlaceId?placeId=84593
,85203,48.831186,2.322225,Paris,La Maison D'emile Zola,Art Museum,http://tour-pedia.org/api/getPlaceDetails?id=85203,http://tour-pedia.org/api/getReviewsByPlaceId?placeId=85203
84 rue de l aqueduc,86134,48.884137,2.3674172333333,Paris,Moitie,Art Museum,http://tour-pedia.org/api/getPlaceDetails?id=86134,http://tour-pedia.org/api/getReviewsByPlaceId?placeId=86134
Place Hannah Arendt,86826,48.877717,2.385852,Paris,FRAC Île-de-France — Le Plateau,Art Museum,http://tour-pedia.org/api/getPlaceDetails?id=86826,http://tour-pedia.org/api/getReviewsByPlaceId?placeId=86826
11 Avenue du Président Wilson,90164,48.864397157594,2.2977840900421,Paris,Musée d'Art Moderne (MAM),Art Museum,http://tour-pedia.org/api/getPlaceDetails?id=90164,http://tour-pedia.org/api/getReviewsByPlaceId?placeId=90164
,90249,48.832230015569,2.3892797565994,Paris,Les Salons Venitiens,Art Museum,http://tour-pedia.org/api/getPlaceDetails?id=90249,http://tour-pedia.org/api/getReviewsByPlaceId?placeId=90249
17 avenue d'Iéna,83758,48.866173067807,2.2944579342768,Paris,Goethe Institut,Arts & Entertainment,http://tour-pedia.org/api/getPlaceDetails?id=83758,http://tour-pedia.org/api/getReviewsByPlaceId?placeId=83758
43 rue du Borrégo,88466,48.873452199177,2.4017656752526,Paris,MJC Les Hauts de Belleville,Arts & Entertainment,http://tour-pedia.org/api/getPlaceDetails?id=88466,http://tour-pedia.org/api/getReviewsByPlaceId?placeId=88466
,88977,48.840319044027,2.4353663971732,Paris,Odyssea Paris,Arts & Entertainment,http://tour-pedia.org/api/getPlaceDetails?id=88977,http://tour-pedia.org/api/getReviewsByPlaceId?placeId=88977
Route de la muette,88978,48.878239745943,2.2609210481552,Paris,Club Hippique Jardin D'acclimatation,Arts & Entertainment,http://tour-pedia.org/api/getPlaceDetails?id=88978,http://tour-pedia.org/api/getReviewsByPlaceId?placeId=88978
11 avenue du Tremblay,84370,48.83219973202,2.4528018467804,Paris,"INSEP - Institut National Du Sport, De L'Expertise Et De La Performance",Athletics & Sports,http://tour-pedia.org/api/getPlaceDetails?id=84370,http://tour-pedia.org/api/getReviewsByPlaceId?placeId=84370
Route des Moulins,85186,48.866716249696,2.2366978332793,Paris,Polo de Paris,Athletics & Sports,http://tour-pedia.org/api/getPlaceDetails?id=85186,http://tour-pedia.org/api/getReviewsByPlaceId?placeId=85186
Parc Suzanne Lenglen,87005,48.830769118593,2.270565032959,Paris,Centre Sportif Suzanne Lenglen,Athletics & Sports,http://tour-pedia.org/api/getPlaceDetails?id=87005,http://tour-pedia.org/api/getReviewsByPlaceId?placeId=87005
,89526,48.835141373125,2.4441515093418,Paris,Citcuit Velo Vincenne,Athletics & Sports,http://tour-pedia.org/api/getPlaceDetails?id=89526,http://tour-pedia.org/api/getReviewsByPlaceId?placeId=89526
,89802,48.831040907071,2.4492322388681,Paris,Bois De Vincennes - Carrière Saint-Hubert,Athletics & Sports,http://tour-pedia.org/api/getPlaceDetails?id=89802,http://tour-pedia.org/api/getReviewsByPlaceId?placeId=89802
Bois de Boulogne,89813,48.867291823363,2.263374976395,Paris,Parcours de Footing,Athletics & Sports,http://tour-pedia.org/api/getPlaceDetails?id=89813,http://tour-pedia.org/api/getReviewsByPlaceId?placeId=89813
Bagatelle,90598,48.872662891756,2.2468369138677,Paris,Terrains de Rugby de Bagatelle,Athletics & Sports,http://tour-pedia.org/api/getPlaceDetails?id=90598,http://tour-pedia.org/api/getReviewsByPlaceId?placeId=90598
,90869,48.877784608004,2.2687850569268,Paris,Gymboree,Athletics & Sports,http://tour-pedia.org/api/getPlaceDetails?id=90869,http://tour-pedia.org/api/getReviewsByPlaceId?placeId=90869
,90933,48.867615428664,2.2444154638546,Paris,Terrain De Bagatelle,Athletics & Sports,http://tour-pedia.org/api/getPlaceDetails?id=90933,http://tour-pedia.org/api/getReviewsByPlaceId?placeId=90933
polo de paris,91059,48.866323925483,2.2358679771423,Paris,Salle de sport du Polo de Paris,Athletics & Sports,http://tour-pedia.org/api/getPlaceDetails?id=91059,http://tour-pedia.org/api/getReviewsByPlaceId?placeId=91059
,91097,48.873036641098,2.2608496256433,Paris,ASCBB,Athletics & Sports,http://tour-pedia.org/api/getPlaceDetails?id=91097,http://tour-pedia.org/api/getReviewsByPlaceId?placeId=91097
,91129,48.875459,2.28379,Paris,Sweatboxing,Athletics & Sports,http://tour-pedia.org/api/getPlaceDetails?id=91129,http://tour-pedia.org/api/getReviewsByPlaceId?placeId=91129
Roland Garros,91247,48.847501522976,2.2481161058449,Paris,Roland Garros ATP Players Lounge,Athletics & Sports,http://tour-pedia.org/api/getPlaceDetails?id=91247,http://tour-pedia.org/api/getReviewsByPlaceId?placeId=91247
25 Avenue D'Ivry,91574,48.820311866396,2.3701598673463,Paris,Salle spécifique Carpentier,Athletics & Sports,http://tour-pedia.org/api/getPlaceDetails?id=91574,http://tour-pedia.org/api/getReviewsByPlaceId?placeId=91574
2-16 rue des Cévennes,84317,48.84416670305,2.2764113365477,Paris,Studios Rive Gauche,Auditorium,http://tour-pedia.org/api/getPlaceDetails?id=84317,http://tour-pedia.org/api/getReviewsByPlaceId?placeId=84317
48 rue la Boétie,84942,48.873956231886,2.3131628217196,Paris,Fédération Nationale du Crédit Agricole,Auditorium,http://tour-pedia.org/api/getPlaceDetails?id=84942,http://tour-pedia.org/api/getReviewsByPlaceId?placeId=84942
Journal le Monde,85581,48.829451275481,2.3481292378003,Paris,Auditorium du Monde,Auditorium,http://tour-pedia.org/api/getPlaceDetails?id=85581,http://tour-pedia.org/api/getReviewsByPlaceId?placeId=85581
,86192,48.881019035659,2.3670826573053,Paris,IBS Consulting,Auditorium,http://tour-pedia.org/api/getPlaceDetails?id=86192,http://tour-pedia.org/api/getReviewsByPlaceId?placeId=86192
9 avenue Gabriel,86366,48.867311982804,2.3178148269653,Paris,Studio Gabriel,Auditorium,http://tour-pedia.org/api/getPlaceDetails?id=86366,http://tour-pedia.org/api/getReviewsByPlaceId?placeId=86366
,87470,48.881773,2.289382,Paris,GroupM - Salle Central Park,Auditorium,http://tour-pedia.org/api/getPlaceDetails?id=87470,http://tour-pedia.org/api/getReviewsByPlaceId?placeId=87470
,87565,48.873520433737,2.3034000323997,Paris,Pathe Distribution...,Auditorium,http://tour-pedia.org/api/getPlaceDetails?id=87565,http://tour-pedia.org/api/getReviewsByPlaceId?placeId=87565
7 rue Scribe,87752,48.871111070135,2.3300971342626,Paris,Bloomberg,Auditorium,http://tour-pedia.org/api/getPlaceDetails?id=87752,http://tour-pedia.org/api/getReviewsByPlaceId?placeId=87752
32 rue fontaine,88718,48.881560775378,2.3341736197472,Paris,Sam and Don Agency,Auditorium,http://tour-pedia.org/api/getPlaceDetails?id=88718,http://tour-pedia.org/api/getReviewsByPlaceId?placeId=88718
"37, Rue Saint-Maur",89248,48.861403179554,2.3808142963917,Paris,21 Juin,Auditorium,http://tour-pedia.org/api/getPlaceDetails?id=89248,http://tour-pedia.org/api/getReviewsByPlaceId?placeId=89248
,89570,48.873512,2.300466,Paris,Paris-Ile De France Capitale Economique,Auditorium,http://tour-pedia.org/api/getPlaceDetails?id=89570,http://tour-pedia.org/api/getReviewsByPlaceId?placeId=89570
,89589,48.868813229885,2.275541100258,Paris,Hall 6,Auditorium,http://tour-pedia.org/api/getPlaceDetails?id=89589,http://tour-pedia.org/api/getReviewsByPlaceId?placeId=89589
"5 Rue de Lobau, 75004 Paris",89712,48.856015967161,2.352973875279,Paris,Mairie de Paris - Auditorium,Auditorium,http://tour-pedia.org/api/getPlaceDetails?id=89712,http://tour-pedia.org/api/getReviewsByPlaceId?placeId=89712
,89919,48.848651572984,2.3506798372253,Paris,Google Atmosphere,Auditorium,http://tour-pedia.org/api/getPlaceDetails?id=89919,http://tour-pedia.org/api/getReviewsByPlaceId?placeId=89919
,90020,48.831534034908,2.3405465624662,Paris,St Germain Des Pres A&B,Auditorium,http://tour-pedia.org/api/getPlaceDetails?id=90020,http://tour-pedia.org/api/getReviewsByPlaceId?placeId=90020
42 Rue Du Borrego,90100,48.873625404649,2.4019507922519,Paris,AFCI (OFII),Auditorium,http://tour-pedia.org/api/getPlaceDetails?id=90100,http://tour-pedia.org/api/getReviewsByPlaceId?placeId=90100
2ème Étage,90413,48.830364,2.376773,Paris,Salle Grand Place,Auditorium,http://tour-pedia.org/api/getPlaceDetails?id=90413,http://tour-pedia.org/api/getReviewsByPlaceId?placeId=90413
8 Rue Rasselins,90476,48.853462196533,2.4104194949189,Paris,Liberty Rock Studio,Auditorium,http://tour-pedia.org/api/getPlaceDetails?id=90476,http://tour-pedia.org/api/getReviewsByPlaceId?placeId=90476
,90479,48.83322184004,2.2689785132142,Paris,Auditorium Bytel,Auditorium,http://tour-pedia.org/api/getPlaceDetails?id=90479,http://tour-pedia.org/api/getReviewsByPlaceId?placeId=90479
32 Rue Guersant,90493,48.881732363118,2.289175953398,Paris,Black Room,Auditorium,http://tour-pedia.org/api/getPlaceDetails?id=90493,http://tour-pedia.org/api/getReviewsByPlaceId?placeId=90493
14 Rue Saint-Fiacre,90614,48.870480692164,2.345860004425,Paris,Le Saint-Fiacre,Auditorium,http://tour-pedia.org/api/getPlaceDetails?id=90614,http://tour-pedia.org/api/getReviewsByPlaceId?placeId=90614
196 rue saint martin,90726,48.863349181451,2.3523922008743,Paris,espace saint martin,Auditorium,http://tour-pedia.org/api/getPlaceDetails?id=90726,http://tour-pedia.org/api/getReviewsByPlaceId?placeId=90726
,90730,48.857487,2.384456,Paris,Dojo Studio,Auditorium,http://tour-pedia.org/api/getPlaceDetails?id=90730,http://tour-pedia.org/api/getReviewsByPlaceId?placeId=90730
73 Rue De Grenelle,91138,48.855064512751,2.3238748617791,Paris,Istituto Italiano Di Cultura,Auditorium,http://tour-pedia.org/api/getPlaceDetails?id=91138,http://tour-pedia.org/api/getReviewsByPlaceId?placeId=91138
54 rue de Seine,91155,48.852911393389,2.3368561118909,Paris,Studio Acousti,Auditorium,http://tour-pedia.org/api/getPlaceDetails?id=91155,http://tour-pedia.org/api/getReviewsByPlaceId?placeId=91155
17 Rue Gazan,91172,48.823392,2.34079,Paris,Centre Cournot,Auditorium,http://tour-pedia.org/api/getPlaceDetails?id=91172,http://tour-pedia.org/api/getReviewsByPlaceId?placeId=91172
,91178,48.827407,2.336102,Paris,Salle Berlin Pie,Auditorium,http://tour-pedia.org/api/getPlaceDetails?id=91178,http://tour-pedia.org/api/getReviewsByPlaceId?placeId=91178
,91219,48.852729264971,2.3050435827432,Paris,Amphi Louis,Auditorium,http://tour-pedia.org/api/getPlaceDetails?id=91219,http://tour-pedia.org/api/getReviewsByPlaceId?placeId=91219
120 rue La Fayette,91309,48.877990352505,2.3522136060235,Paris,Espace La Fayette,Auditorium,http://tour-pedia.org/api/getPlaceDetails?id=91309,http://tour-pedia.org/api/getReviewsByPlaceId?placeId=91309
7 PLACE DE FONTENOY,91312,48.849072793413,2.305980160371,Paris,Hall Miro III,Auditorium,http://tour-pedia.org/api/getPlaceDetails?id=91312,http://tour-pedia.org/api/getReviewsByPlaceId?placeId=91312
98 Ter Rue Des Haies,91420,48.855555,2.40415,Paris,Alphasound,Auditorium,http://tour-pedia.org/api/getPlaceDetails?id=91420,http://tour-pedia.org/api/getReviewsByPlaceId?placeId=91420
,91423,48.867043,2.292048,Paris,Espace Hamelin - salle Curie,Auditorium,http://tour-pedia.org/api/getPlaceDetails?id=91423,http://tour-pedia.org/api/getReviewsByPlaceId?placeId=91423
,91482,48.887899,2.356799,Paris,Cfa Stephenson,Auditorium,http://tour-pedia.org/api/getPlaceDetails?id=91482,http://tour-pedia.org/api/getReviewsByPlaceId?placeId=91482
,91714,48.879107,2.28349,Paris,Bagatelle,Auditorium,http://tour-pedia.org/api/getPlaceDetails?id=91714,http://tour-pedia.org/api/getReviewsByPlaceId?placeId=91714
3 rue Mazagran,91740,48.870587,2.351138,Paris,orange partner,Auditorium,http://tour-pedia.org/api/getPlaceDetails?id=91740,http://tour-pedia.org/api/getReviewsByPlaceId?placeId=91740
,91744,48.887743965397,2.3230063500104,Paris,Espace Batignolles,Auditorium,http://tour-pedia.org/api/getPlaceDetails?id=91744,http://tour-pedia.org/api/getReviewsByPlaceId?placeId=91744
,91762,48.849618,2.283265,Paris,eTail congress,Auditorium,http://tour-pedia.org/api/getPlaceDetails?id=91762,http://tour-pedia.org/api/getReviewsByPlaceId?placeId=91762
,91768,48.863001,2.30761,Paris,City Lab,Auditorium,http://tour-pedia.org/api/getPlaceDetails?id=91768,http://tour-pedia.org/api/getReviewsByPlaceId?placeId=91768
"12, rue Marceau",91771,48.866114,2.300008,Paris,Adobe Digital Summit,Auditorium,http://tour-pedia.org/api/getPlaceDetails?id=91771,http://tour-pedia.org/api/getReviewsByPlaceId?placeId=91771
,91830,48.859427,2.316608,Paris,ICCO PR SUMMIT,Auditorium,http://tour-pedia.org/api/getPlaceDetails?id=91830,http://tour-pedia.org/api/getReviewsByPlaceId?placeId=91830
,91895,48.835075,2.327788,Paris,Uneville Studio,Auditorium,http://tour-pedia.org/api/getPlaceDetails?id=91895,http://tour-pedia.org/api/getReviewsByPlaceId?placeId=91895
99 rue Oberkampf,83355,48.8654975,2.3766887,Paris,Mécano-Bar,Bar,http://tour-pedia.org/api/getPlaceDetails?id=83355,http://tour-pedia.org/api/getReviewsByPlaceId?placeId=83355
11 Quai François Mauriac,83383,48.833382225428,2.3792588710785,Paris,Le Batofar,Bar,http://tour-pedia.org/api/getPlaceDetails?id=83383,http://tour-pedia.org/api/getReviewsByPlaceId?placeId=83383
16 rue des Quatre Vents,83388,48.851820299809,2.3377395841813,Paris,The Moose,Bar,http://tour-pedia.org/api/getPlaceDetails?id=83388,http://tour-pedia.org/api/getReviewsByPlaceId?placeId=83388
23 rue Gabrielle,83409,48.885773,2.34061,Paris,Le Rendez-Vous des Amis,Bar,http://tour-pedia.org/api/getPlaceDetails?id=83409,http://tour-pedia.org/api/getReviewsByPlaceId?placeId=83409
16 rue Dufrénoy,83416,48.865932121219,2.2721822450395,Paris,Oum El Banine,Bar,http://tour-pedia.org/api/getPlaceDetails?id=83416,http://tour-pedia.org/api/getReviewsByPlaceId?placeId=83416
10 Rue Mouffetard,83421,48.844554,2.349542,Paris,Le Requin Chagrin,Bar,http://tour-pedia.org/api/getPlaceDetails?id=83421,http://tour-pedia.org/api/getReviewsByPlaceId?placeId=83421
5 rue Trousseau,83439,48.8511579,2.3786311,Paris,The Bottle Shop,Bar,http://tour-pedia.org/api/getPlaceDetails?id=83439,http://tour-pedia.org/api/getReviewsByPlaceId?placeId=83439
8 rue de Belleville,83446,48.872475101027,2.3780466634939,Paris,Aux Folies,Bar,http://tour-pedia.org/api/getPlaceDetails?id=83446,http://tour-pedia.org/api/getReviewsByPlaceId?placeId=83446
"16, rue des Dames",83780,48.885085,2.325222,Paris,Lush Bar,Bar,http://tour-pedia.org/api/getPlaceDetails?id=83780,http://tour-pedia.org/api/getReviewsByPlaceId?placeId=83780
163 avenue de Suffren,83784,48.845764962508,2.3098094894535,Paris,Le Cristal,Bar,http://tour-pedia.org/api/getPlaceDetails?id=83784,http://tour-pedia.org/api/getReviewsByPlaceId?placeId=83784
80 Quai de Jemmapes,83793,48.872576587867,2.365665435791,Paris,Le Comptoir Général,Bar,http://tour-pedia.org/api/getPlaceDetails?id=83793,http://tour-pedia.org/api/getReviewsByPlaceId?placeId=83793
74 rue de la Roquette,83794,48.855902944204,2.3752862345613,Paris,Les Furieux,Bar,http://tour-pedia.org/api/getPlaceDetails?id=83794,http://tour-pedia.org/api/getReviewsByPlaceId?placeId=83794
8 Boulevard Montmartre,83796,48.871615786505,2.3423790813692,Paris,Café Oz,Bar,http://tour-pedia.org/api/getPlaceDetails?id=83796,http://tour-pedia.org/api/getReviewsByPlaceId?placeId=83796
"40, Rue de Clignancourt",83800,48.887048,2.3475959308034,Paris,La Chope du Château Rouge,Bar,http://tour-pedia.org/api/getPlaceDetails?id=83800,http://tour-pedia.org/api/getReviewsByPlaceId?placeId=83800
18 rue Alibert,83805,48.871718024516,2.36778651759,Paris,Le Carillon,Bar,http://tour-pedia.org/api/getPlaceDetails?id=83805,http://tour-pedia.org/api/getReviewsByPlaceId?placeId=83805
2 rue de Passy,83808,48.858557,2.284398,Paris,Le Passy,Bar,http://tour-pedia.org/api/getPlaceDetails?id=83808,http://tour-pedia.org/api/getReviewsByPlaceId?placeId=83808
15 rue de Sévigné,83828,48.856357570993,2.3625755310059,Paris,Le Piment,Bar,http://tour-pedia.org/api/getPlaceDetails?id=83828,http://tour-pedia.org/api/getReviewsByPlaceId?placeId=83828
49 rue Jean-Pierre Timbaud,83857,48.866874416968,2.3738837242126,Paris,UFO Bar,Bar,http://tour-pedia.org/api/getPlaceDetails?id=83857,http://tour-pedia.org/api/getReviewsByPlaceId?placeId=83857
26 Pl. de la Nation,83889,48.847389044857,2.3967680098835,Paris,The Irish Corner,Bar,http://tour-pedia.org/api/getPlaceDetails?id=83889,http://tour-pedia.org/api/getReviewsByPlaceId?placeId=83889
2 rue Valette,83892,48.848121658557,2.3471311769133,Paris,Le Saint Hilaire,Bar,http://tour-pedia.org/api/getPlaceDetails?id=83892,http://tour-pedia.org/api/getReviewsByPlaceId?placeId=83892
32 rue des Moines,83900,48.889029,2.319552,Paris,Le Zinc Café,Bar,http://tour-pedia.org/api/getPlaceDetails?id=83900,http://tour-pedia.org/api/getReviewsByPlaceId?placeId=83900
37 Rue des Abbesses,83908,48.885113,2.337205,Paris,Le Vrai Paris,Bar,http://tour-pedia.org/api/getPlaceDetails?id=83908,http://tour-pedia.org/api/getReviewsByPlaceId?placeId=83908
34 Rue Titon,83911,48.852908,2.386238,Paris,Café Titon,Bar,http://tour-pedia.org/api/getPlaceDetails?id=83911,http://tour-pedia.org/api/getReviewsByPlaceId?placeId=83911
10 Rue Oberkampf,83958,48.863131208948,2.3684896342768,Paris,Le Kitch,Bar,http://tour-pedia.org/api/getPlaceDetails?id=83958,http://tour-pedia.org/api/getReviewsByPlaceId?placeId=83958
23 Avenue Simón Bolívar,84011,48.8748812,2.382555,Paris,Le Faitout,Bar,http://tour-pedia.org/api/getPlaceDetails?id=84011,http://tour-pedia.org/api/getReviewsByPlaceId?placeId=84011
Place des Abbesses,84024,48.884767953576,2.3379048059763,Paris,Le Saint Jean,Bar,http://tour-pedia.org/api/getPlaceDetails?id=84024,http://tour-pedia.org/api/getReviewsByPlaceId?placeId=84024
8 Passage Josset,84042,48.852729230887,2.3765012839984,Paris,Le Motel,Bar,http://tour-pedia.org/api/getPlaceDetails?id=84042,http://tour-pedia.org/api/getReviewsByPlaceId?placeId=84042
"133, Avenue Emile-Zola",84055,48.846856,2.293631,Paris,Le Cosmos,Bar,http://tour-pedia.org/api/getPlaceDetails?id=84055,http://tour-pedia.org/api/getReviewsByPlaceId?placeId=84055
81 Avenue Gambetta,84108,48.865041,2.398658,Paris,Café Gambetta,Bar,http://tour-pedia.org/api/getPlaceDetails?id=84108,http://tour-pedia.org/api/getReviewsByPlaceId?placeId=84108
16 rue de la Butte-aux-Cailles,84115,48.8279062549,2.3511000924898,Paris,Sputnik,Bar,http://tour-pedia.org/api/getPlaceDetails?id=84115,http://tour-pedia.org/api/getReviewsByPlaceId?placeId=84115
126 rue Oberkampf,84120,48.866327,2.379881,Paris,Le styx,Bar,http://tour-pedia.org/api/getPlaceDetails?id=84120,http://tour-pedia.org/api/getReviewsByPlaceId?placeId=84120
15 rue de la Butte aux Cailles,84132,48.827721,2.349955,Paris,Chez Michel,Bar,http://tour-pedia.org/api/getPlaceDetails?id=84132,http://tour-pedia.org/api/getReviewsByPlaceId?placeId=84132
"25, rue Corentin Cariou",84139,48.897014,2.384871,Paris,Les pierres qui roulent,Bar,http://tour-pedia.org/api/getPlaceDetails?id=84139,http://tour-pedia.org/api/getReviewsByPlaceId?placeId=84139
21 quai de Montebello,84146,48.852289685788,2.348163003051,Paris,Cafe Panis,Bar,http://tour-pedia.org/api/getPlaceDetails?id=84146,http://tour-pedia.org/api/getReviewsByPlaceId?placeId=84146
46 rue du Faubourg Saint-Denis,84166,48.87156,2.353579,Paris,Le Mauri'7,Bar,http://tour-pedia.org/api/getPlaceDetails?id=84166,http://tour-pedia.org/api/getReviewsByPlaceId?placeId=84166
7 Rue Sainte-Croix de la Bretonnerie,84194,48.857956,2.356663,Paris,La Panfoulia,Bar,http://tour-pedia.org/api/getPlaceDetails?id=84194,http://tour-pedia.org/api/getReviewsByPlaceId?placeId=84194
27 Rue de Cotte,84202,48.850129,2.378135,Paris,Le Troll Café,Bar,http://tour-pedia.org/api/getPlaceDetails?id=84202,http://tour-pedia.org/api/getReviewsByPlaceId?placeId=84202
74 Rue des Martyrs,84206,48.882158723123,2.3395299911499,Paris,La Fourmi,Bar,http://tour-pedia.org/api/getPlaceDetails?id=84206,http://tour-pedia.org/api/getReviewsByPlaceId?placeId=84206
59 boulevard de Montparnasse,84233,48.843920219757,2.3231713043,Paris,La Marine,Bar,http://tour-pedia.org/api/getPlaceDetails?id=84233,http://tour-pedia.org/api/getReviewsByPlaceId?placeId=84233
88 rue Lepic,84237,48.8873343,2.336192,Paris,Autour du Moulin,Bar,http://tour-pedia.org/api/getPlaceDetails?id=84237,http://tour-pedia.org/api/getReviewsByPlaceId?placeId=84237
Pl. Octave Chanute,84270,48.866521,2.406241,Paris,Le Country Bar,Bar,http://tour-pedia.org/api/getPlaceDetails?id=84270,http://tour-pedia.org/api/getReviewsByPlaceId?placeId=84270
13 rue de la Butte aux Cailles,84278,48.827721725,2.350179,Paris,La Taverne de la Butte,Bar,http://tour-pedia.org/api/getPlaceDetails?id=84278,http://tour-pedia.org/api/getReviewsByPlaceId?placeId=84278
61 rue Réaumur,84287,48.866758346556,2.350961,Paris,Café Lazar,Bar,http://tour-pedia.org/api/getPlaceDetails?id=84287,http://tour-pedia.org/api/getReviewsByPlaceId?placeId=84287
307 Rue du Faubourg Saint-Antoine,84296,48.848909895525,2.3927144414822,Paris,Extra Old Café,Bar,http://tour-pedia.org/api/getPlaceDetails?id=84296,http://tour-pedia.org/api/getReviewsByPlaceId?placeId=84296
168 Boulevard Diderot,84297,48.847854250315,2.3927664756775,Paris,La Mère Pouchet,Bar,http://tour-pedia.org/api/getPlaceDetails?id=84297,http://tour-pedia.org/api/getReviewsByPlaceId?placeId=84297
1 Rue Ramey,84331,48.886953149323,2.3476779003661,Paris,Au Clair de Lune,Bar,http://tour-pedia.org/api/getPlaceDetails?id=84331,http://tour-pedia.org/api/getReviewsByPlaceId?placeId=84331
149 boulevard Voltaire,84338,48.85546812563,2.3842692375183,Paris,Café Léopard,Bar,http://tour-pedia.org/api/getPlaceDetails?id=84338,http://tour-pedia.org/api/getReviewsByPlaceId?placeId=84338
103 rue Julien Lacroix,84368,48.873050848782,2.3819764147866,Paris,Culture Rapide,Bar,http://tour-pedia.org/api/getPlaceDetails?id=84368,http://tour-pedia.org/api/getReviewsByPlaceId?placeId=84368
11 Rue de la Butte aux Cailles,84397,48.827778,2.350402,Paris,Le Merle Moqueur,Bar,http://tour-pedia.org/api/getPlaceDetails?id=84397,http://tour-pedia.org/api/getReviewsByPlaceId?placeId=84397
108 boulevard de Belleville,84427,48.870417178803,2.3780250549316,Paris,La Cantine de Belleville,Bar,http://tour-pedia.org/api/getPlaceDetails?id=84427,http://tour-pedia.org/api/getReviewsByPlaceId?placeId=84427
3 avenue des Gobelins,84429,48.838371,2.350669,Paris,Verse Toujours,Bar,http://tour-pedia.org/api/getPlaceDetails?id=84429,http://tour-pedia.org/api/getReviewsByPlaceId?placeId=84429
100 Rue Legendre,84501,48.887520875756,2.3203034970657,Paris,La Legende,Bar,http://tour-pedia.org/api/getPlaceDetails?id=84501,http://tour-pedia.org/api/getReviewsByPlaceId?placeId=84501
75 avenue de Saint-Ouen,84503,48.892475,2.327377,Paris,Le Bar belge,Bar,http://tour-pedia.org/api/getPlaceDetails?id=84503,http://tour-pedia.org/api/getReviewsByPlaceId?placeId=84503
105 Rue Oberkampf,84526,48.865866942374,2.3775234818459,Paris,La Place Verte,Bar,http://tour-pedia.org/api/getPlaceDetails?id=84526,http://tour-pedia.org/api/getReviewsByPlaceId?placeId=84526
103 Rue de Belleville,84536,48.874492,2.3863129321991,Paris,Le Bariolé,Bar,http://tour-pedia.org/api/getPlaceDetails?id=84536,http://tour-pedia.org/api/getReviewsByPlaceId?placeId=84536
4bis Rue Neuve Popincourt,84616,48.864420803041,2.3740906711911,Paris,Udo Bar,Bar,http://tour-pedia.org/api/getPlaceDetails?id=84616,http://tour-pedia.org/api/getReviewsByPlaceId?placeId=84616
12 Rue Victor Letalle,84620,48.867278128659,2.3852728798539,Paris,La Féline,Bar,http://tour-pedia.org/api/getPlaceDetails?id=84620,http://tour-pedia.org/api/getReviewsByPlaceId?placeId=84620
194-198 Rue du Faubourg Saint-Antoine,84644,48.850120603882,2.3843783126505,Paris,Le Bidule,Bar,http://tour-pedia.org/api/getPlaceDetails?id=84644,http://tour-pedia.org/api/getReviewsByPlaceId?placeId=84644
158 rue Oberkampf,84690,48.866934,2.38224,Paris,Café de Paris,Bar,http://tour-pedia.org/api/getPlaceDetails?id=84690,http://tour-pedia.org/api/getReviewsByPlaceId?placeId=84690
99 rue Jean-Pierre Timbaud,84691,48.868643471429,2.380091,Paris,L'Assassin,Bar,http://tour-pedia.org/api/getPlaceDetails?id=84691,http://tour-pedia.org/api/getReviewsByPlaceId?placeId=84691
72 bis rue Jean-Pierre Timbaud,84693,48.867222709476,2.3755761913615,Paris,L'Orange Mécanique,Bar,http://tour-pedia.org/api/getPlaceDetails?id=84693,http://tour-pedia.org/api/getReviewsByPlaceId?placeId=84693
"46, Boulevard Voltaire",84694,48.863524578175,2.3706994602974,Paris,Apérock Café,Bar,http://tour-pedia.org/api/getPlaceDetails?id=84694,http://tour-pedia.org/api/getReviewsByPlaceId?placeId=84694
90 boulevard de l'Hôpital,84728,48.836648,2.359216,Paris,La Ménagerie,Bar,http://tour-pedia.org/api/getPlaceDetails?id=84728,http://tour-pedia.org/api/getReviewsByPlaceId?placeId=84728
67 quai de Seine,84733,48.887955781608,2.3772163150289,Paris,Café Le Bastringue,Bar,http://tour-pedia.org/api/getPlaceDetails?id=84733,http://tour-pedia.org/api/getReviewsByPlaceId?placeId=84733
"54, avenue de Saint-Mandé",84747,48.84487876,2.4025297164917,Paris,Café Cosy,Bar,http://tour-pedia.org/api/getPlaceDetails?id=84747,http://tour-pedia.org/api/getReviewsByPlaceId?placeId=84747
200 Quai de Valmy,84761,48.881255625249,2.3688840866089,Paris,Point Éphémère,Bar,http://tour-pedia.org/api/getPlaceDetails?id=84761,http://tour-pedia.org/api/getReviewsByPlaceId?placeId=84761
65 Rue Jean-Baptiste Pigalle,84871,48.881185070041,2.3361611366272,Paris,Le Sans Souci,Bar,http://tour-pedia.org/api/getPlaceDetails?id=84871,http://tour-pedia.org/api/getReviewsByPlaceId?placeId=84871
6 place du Colonel Fabien,84925,48.877963,2.370754,Paris,Café des Dames,Bar,http://tour-pedia.org/api/getPlaceDetails?id=84925,http://tour-pedia.org/api/getReviewsByPlaceId?placeId=84925
"21 Rue Copreaux, 75015 Paris, Ile-de-France",84966,48.841696352824,2.3069990796149,Paris,Le drapeau de la fidelité,Bar,http://tour-pedia.org/api/getPlaceDetails?id=84966,http://tour-pedia.org/api/getReviewsByPlaceId?placeId=84966
13 rue Moret,84975,48.867061007492,2.3795113835542,Paris,La Cantada II,Bar,http://tour-pedia.org/api/getPlaceDetails?id=84975,http://tour-pedia.org/api/getReviewsByPlaceId?placeId=84975
25 rue de Lappe,85037,48.853699053993,2.3727658273371,Paris,Hideout,Bar,http://tour-pedia.org/api/getPlaceDetails?id=85037,http://tour-pedia.org/api/getReviewsByPlaceId?placeId=85037
56 rue des cinq diamants,85050,48.827838039306,2.3494112491608,Paris,Le Diamant,Bar,http://tour-pedia.org/api/getPlaceDetails?id=85050,http://tour-pedia.org/api/getReviewsByPlaceId?placeId=85050
"7, rue des Moines",85118,48.887812,2.318389,Paris,Le Manoir,Bar,http://tour-pedia.org/api/getPlaceDetails?id=85118,http://tour-pedia.org/api/getReviewsByPlaceId?placeId=85118
11 rue Lapeyrère,85155,48.892203487005,2.3430024047907,Paris,L'Alibi,Bar,http://tour-pedia.org/api/getPlaceDetails?id=85155,http://tour-pedia.org/api/getReviewsByPlaceId?placeId=85155
"76, avenue de la Grande Armée",85239,48.877195,2.284592,Paris,La Terrasse Bar,Bar,http://tour-pedia.org/api/getPlaceDetails?id=85239,http://tour-pedia.org/api/getReviewsByPlaceId?placeId=85239
129 avenue du Général Leclerc,85244,48.823174,2.325856,Paris,Paris Orléans,Bar,http://tour-pedia.org/api/getPlaceDetails?id=85244,http://tour-pedia.org/api/getReviewsByPlaceId?placeId=85244
51 rue Lacépède,85245,48.844419,2.349798,Paris,The Wall,Bar,http://tour-pedia.org/api/getPlaceDetails?id=85245,http://tour-pedia.org/api/getReviewsByPlaceId?placeId=85245
337 rue de Belleville,85274,48.876843732614,2.4052646735665,Paris,Le Rigoletto,Bar,http://tour-pedia.org/api/getPlaceDetails?id=85274,http://tour-pedia.org/api/getReviewsByPlaceId?placeId=85274
3 rue Biot,85291,48.883808050966,2.3267342310434,Paris,Le Cyrano,Bar,http://tour-pedia.org/api/getPlaceDetails?id=85291,http://tour-pedia.org/api/getReviewsByPlaceId?placeId=85291
13 Rue Jean-Baptiste Dumay,85325,48.874747370439,2.3878587037325,Paris,La Cagnotte,Bar,http://tour-pedia.org/api/getPlaceDetails?id=85325,http://tour-pedia.org/api/getReviewsByPlaceId?placeId=85325
74 boulevard Diderot,85368,48.846855692986,2.3818797685789,Paris,Le Bistrologue,Bar,http://tour-pedia.org/api/getPlaceDetails?id=85368,http://tour-pedia.org/api/getReviewsByPlaceId?placeId=85368
19 rue Pascal,85397,48.837775,2.349371,Paris,La Tactique,Bar,http://tour-pedia.org/api/getPlaceDetails?id=85397,http://tour-pedia.org/api/getReviewsByPlaceId?placeId=85397
170 rue d'alésia,85441,48.83177088166,2.3141660229218,Paris,Café Chineur,Bar,http://tour-pedia.org/api/getPlaceDetails?id=85441,http://tour-pedia.org/api/getReviewsByPlaceId?placeId=85441
15 rue de la butte aux cailles,85456,48.827629,2.350062,Paris,Le Diapason,Bar,http://tour-pedia.org/api/getPlaceDetails?id=85456,http://tour-pedia.org/api/getReviewsByPlaceId?placeId=85456
39 Boulevard du Port Royal,85480,48.837668019775,2.345476,Paris,Val Café,Bar,http://tour-pedia.org/api/getPlaceDetails?id=85480,http://tour-pedia.org/api/getReviewsByPlaceId?placeId=85480
56 rue de Bagnolet,85555,48.857590596183,2.3992092956223,Paris,L'Abribus Café,Bar,http://tour-pedia.org/api/getPlaceDetails?id=85555,http://tour-pedia.org/api/getReviewsByPlaceId?placeId=85555
108 rue Ménilmontant,85556,48.869602,2.393357,Paris,Chez Luna,Bar,http://tour-pedia.org/api/getPlaceDetails?id=85556,http://tour-pedia.org/api/getReviewsByPlaceId?placeId=85556
,85569,48.834009,2.318145,Paris,Café Losserand,Bar,http://tour-pedia.org/api/getPlaceDetails?id=85569,http://tour-pedia.org/api/getReviewsByPlaceId?placeId=85569
63 Rue Jean-Pierre Timbaud,85615,48.867174,2.375521,Paris,Le Petit Garage,Bar,http://tour-pedia.org/api/getPlaceDetails?id=85615,http://tour-pedia.org/api/getReviewsByPlaceId?placeId=85615
15 Rue de Bagnolet,85619,48.856731798389,2.3956744094875,Paris,Piston Pélican,Bar,http://tour-pedia.org/api/getPlaceDetails?id=85619,http://tour-pedia.org/api/getReviewsByPlaceId?placeId=85619
32 rue Sainte-Marthe,85633,48.874096,2.372629,Paris,La Sardine,Bar,http://tour-pedia.org/api/getPlaceDetails?id=85633,http://tour-pedia.org/api/getReviewsByPlaceId?placeId=85633
9 place du Général Beuret,85652,48.841743251457,2.3032128810883,Paris,Le Général Beuret,Bar,http://tour-pedia.org/api/getPlaceDetails?id=85652,http://tour-pedia.org/api/getReviewsByPlaceId?placeId=85652
334 Rue des Pyrénées,85670,48.873328,2.390047,Paris,Les Rigoles,Bar,http://tour-pedia.org/api/getPlaceDetails?id=85670,http://tour-pedia.org/api/getReviewsByPlaceId?placeId=85670
Rue Philippe Auguste,85704,48.849386875723,2.395360893508,Paris,Royal Nation,Bar,http://tour-pedia.org/api/getPlaceDetails?id=85704,http://tour-pedia.org/api/getReviewsByPlaceId?placeId=85704
43 Rue de Lappe,85825,48.853260654128,2.3736342349034,Paris,Some Girls Bar,Bar,http://tour-pedia.org/api/getPlaceDetails?id=85825,http://tour-pedia.org/api/getReviewsByPlaceId?placeId=85825
Place de la porte de bagnolet,85873,48.864210713039,2.4073530833605,Paris,le Vingtième,Bar,http://tour-pedia.org/api/getPlaceDetails?id=85873,http://tour-pedia.org/api/getReviewsByPlaceId?placeId=85873
,85903,48.882838615518,2.3704366764246,Paris,Le Cadran Bleu,Bar,http://tour-pedia.org/api/getPlaceDetails?id=85903,http://tour-pedia.org/api/getReviewsByPlaceId?placeId=85903
58 rue Gauthey,85958,48.893763973623,2.3222540680827,Paris,Irène et Bernard,Bar,http://tour-pedia.org/api/getPlaceDetails?id=85958,http://tour-pedia.org/api/getReviewsByPlaceId?placeId=85958
,85995,48.838467,2.357212,Paris,Le Baratin,Bar,http://tour-pedia.org/api/getPlaceDetails?id=85995,http://tour-pedia.org/api/getReviewsByPlaceId?placeId=85995
,85998,48.868554,2.38991,Paris,Le Lieu Dit,Bar,http://tour-pedia.org/api/getPlaceDetails?id=85998,http://tour-pedia.org/api/getReviewsByPlaceId?placeId=85998
55 quai de la Seine,86011,48.886705,2.375272,Paris,Péniche Antipode,Bar,http://tour-pedia.org/api/getPlaceDetails?id=86011,http://tour-pedia.org/api/getReviewsByPlaceId?placeId=86011
106 rue de Charonne,86075,48.854712910471,2.3853967593633,Paris,L'Ingenu,Bar,http://tour-pedia.org/api/getPlaceDetails?id=86075,http://tour-pedia.org/api/getReviewsByPlaceId?placeId=86075
34 Rue Durantin,86112,48.886568,2.3357118428571,Paris,Prohibido,Bar,http://tour-pedia.org/api/getPlaceDetails?id=86112,http://tour-pedia.org/api/getReviewsByPlaceId?placeId=86112
36 rue Henri Chevreau,86139,48.870303503111,2.3891037864293,Paris,Le Popul'Air,Bar,http://tour-pedia.org/api/getPlaceDetails?id=86139,http://tour-pedia.org/api/getReviewsByPlaceId?placeId=86139
234 boulevard Raspail,86143,48.839255597769,2.3307560457404,Paris,Café des Arts,Bar,http://tour-pedia.org/api/getPlaceDetails?id=86143,http://tour-pedia.org/api/getReviewsByPlaceId?placeId=86143
5 Rue de Chaumont,86148,48.881475,2.372024,Paris,La Bicyclette café,Bar,http://tour-pedia.org/api/getPlaceDetails?id=86148,http://tour-pedia.org/api/getReviewsByPlaceId?placeId=86148
6 avenue Jean Aicard,86178,48.864762344963,2.381445863515,Paris,La Fine Mousse,Bar,http://tour-pedia.org/api/getPlaceDetails?id=86178,http://tour-pedia.org/api/getReviewsByPlaceId?placeId=86178
36 rue de Clignancourt,86251,48.886672452855,2.3475664650128,Paris,Le Troquet,Bar,http://tour-pedia.org/api/getPlaceDetails?id=86251,http://tour-pedia.org/api/getReviewsByPlaceId?placeId=86251
2 avenue René Coty,86281,48.833508024374,2.3327941489858,Paris,Le Lakanal,Bar,http://tour-pedia.org/api/getPlaceDetails?id=86281,http://tour-pedia.org/api/getReviewsByPlaceId?placeId=86281
rue du Château Landon,86406,48.879038345413,2.3623499709477,Paris,Château-Landon,Bar,http://tour-pedia.org/api/getPlaceDetails?id=86406,http://tour-pedia.org/api/getReviewsByPlaceId?placeId=86406
148 Rue du Faubourg Saint-Martin,86420,48.8754249,2.3598265,Paris,Café A,Bar,http://tour-pedia.org/api/getPlaceDetails?id=86420,http://tour-pedia.org/api/getReviewsByPlaceId?placeId=86420
33 rue de la Butte aux Cailles,86492,48.827511697638,2.3482695849191,Paris,La Folie en Tête,Bar,http://tour-pedia.org/api/getPlaceDetails?id=86492,http://tour-pedia.org/api/getReviewsByPlaceId?placeId=86492
13 rue d'Odessa,86497,48.842282082823,2.3244539220409,Paris,La Vache au Comptoir,Bar,http://tour-pedia.org/api/getPlaceDetails?id=86497,http://tour-pedia.org/api/getReviewsByPlaceId?placeId=86497
,86510,48.849611543361,2.3979203767817,Paris,Le Muguet,Bar,http://tour-pedia.org/api/getPlaceDetails?id=86510,http://tour-pedia.org/api/getReviewsByPlaceId?placeId=86510
18-22 Rue des Panoyaux,86511,48.866364,2.386101,Paris,Cale Sèche,Bar,http://tour-pedia.org/api/getPlaceDetails?id=86511,http://tour-pedia.org/api/getReviewsByPlaceId?placeId=86511
103 boulevard Malesherbes,86695,48.87940704594,2.314145565033,Paris,Grand Café de la Poste,Bar,http://tour-pedia.org/api/getPlaceDetails?id=86695,http://tour-pedia.org/api/getReviewsByPlaceId?placeId=86695
9 rue Alfred Bruneau,86737,48.856022,2.277902,Paris,Le diplomate PMU,Bar,http://tour-pedia.org/api/getPlaceDetails?id=86737,http://tour-pedia.org/api/getReviewsByPlaceId?placeId=86737
,86766,48.837572776551,2.3463428055212,Paris,Aux Marsouins,Bar,http://tour-pedia.org/api/getPlaceDetails?id=86766,http://tour-pedia.org/api/getReviewsByPlaceId?placeId=86766
58 Rue la Condamine,86839,48.885806857497,2.3213984067271,Paris,Le Petit Village,Bar,http://tour-pedia.org/api/getPlaceDetails?id=86839,http://tour-pedia.org/api/getReviewsByPlaceId?placeId=86839
8 boulevard de Denain,86919,48.879251462243,2.3542504129494,Paris,Hideout,Bar,http://tour-pedia.org/api/getPlaceDetails?id=86919,http://tour-pedia.org/api/getReviewsByPlaceId?placeId=86919
230 boulevard Voltaire,86925,48.852269184974,2.3892067247234,Paris,L'Aquarium,Bar,http://tour-pedia.org/api/getPlaceDetails?id=86925,http://tour-pedia.org/api/getReviewsByPlaceId?placeId=86925
325 rue Lecourbe,86993,48.837414,2.284985,Paris,Chez Roberto,Bar,http://tour-pedia.org/api/getPlaceDetails?id=86993,http://tour-pedia.org/api/getReviewsByPlaceId?placeId=86993
4 boulevard de Grenelle,87028,48.854129,2.289024,Paris,Eiffel Café,Bar,http://tour-pedia.org/api/getPlaceDetails?id=87028,http://tour-pedia.org/api/getReviewsByPlaceId?placeId=87028
16 Rue de Cotte,87033,48.850009,2.378104,Paris,Nul Bar Ailleurs,Bar,http://tour-pedia.org/api/getPlaceDetails?id=87033,http://tour-pedia.org/api/getReviewsByPlaceId?placeId=87033
88-90 avenue de Saint-Ouen,87057,48.893162,2.327514,Paris,Le Championnet,Bar,http://tour-pedia.org/api/getPlaceDetails?id=87057,http://tour-pedia.org/api/getReviewsByPlaceId?placeId=87057
70 rue du rendez-vous,87068,48.846797649788,2.4003343247848,Paris,Le Rendez-Vous,Bar,http://tour-pedia.org/api/getPlaceDetails?id=87068,http://tour-pedia.org/api/getReviewsByPlaceId?placeId=87068
5 rue André Antoine,87214,48.882829420482,2.3374882665804,Paris,Rock & Roll Circus Bar,Bar,http://tour-pedia.org/api/getPlaceDetails?id=87214,http://tour-pedia.org/api/getReviewsByPlaceId?placeId=87214
12 avenue Mozart,87379,48.857554,2.273364,Paris,Le Mozart,Bar,http://tour-pedia.org/api/getPlaceDetails?id=87379,http://tour-pedia.org/api/getReviewsByPlaceId?placeId=87379
14 Rue Lincoln,87506,48.870464813832,2.3031377792358,Paris,Cottage Élysée,Bar,http://tour-pedia.org/api/getPlaceDetails?id=87506,http://tour-pedia.org/api/getReviewsByPlaceId?placeId=87506
208 avenue Jean Jaurès,87516,48.888788885618,2.3926786291591,Paris,Biclowne Café,Bar,http://tour-pedia.org/api/getPlaceDetails?id=87516,http://tour-pedia.org/api/getReviewsByPlaceId?placeId=87516
1 Rue de Lyon,87532,48.845865058579,2.3724233645621,Paris,L'Express de Lyon,Bar,http://tour-pedia.org/api/getPlaceDetails?id=87532,http://tour-pedia.org/api/getReviewsByPlaceId?placeId=87532
4 avenue Carnot,87539,48.875126,2.293851,Paris,Le Vin Cœur,Bar,http://tour-pedia.org/api/getPlaceDetails?id=87539,http://tour-pedia.org/api/getReviewsByPlaceId?placeId=87539
20 Rue de la Forge Royale,87594,48.851664808069,2.3806204109082,Paris,Twenty One Sound,Bar,http://tour-pedia.org/api/getPlaceDetails?id=87594,http://tour-pedia.org/api/getReviewsByPlaceId?placeId=87594
386 rue de Vaugirard,87678,48.832789668626,2.2881734880908,Paris,Dupont Versailles,Bar,http://tour-pedia.org/api/getPlaceDetails?id=87678,http://tour-pedia.org/api/getReviewsByPlaceId?placeId=87678
18 avenue de Flandre,87714,48.885306158247,2.3702576102992,Paris,Le Zèbre dans le Patio,Bar,http://tour-pedia.org/api/getPlaceDetails?id=87714,http://tour-pedia.org/api/getReviewsByPlaceId?placeId=87714
6 Rue Planchat,87732,48.851955026164,2.3993161059745,Paris,Le Bouillon Belge,Bar,http://tour-pedia.org/api/getPlaceDetails?id=87732,http://tour-pedia.org/api/getReviewsByPlaceId?placeId=87732
104 rue de bagnolet,87745,48.859689008701,2.4029401834952,Paris,Gambetta Club,Bar,http://tour-pedia.org/api/getPlaceDetails?id=87745,http://tour-pedia.org/api/getReviewsByPlaceId?placeId=87745
17 rue d'Avron,87771,48.851558091109,2.3994267479476,Paris,Le Bistrot d'Avron,Bar,http://tour-pedia.org/api/getPlaceDetails?id=87771,http://tour-pedia.org/api/getReviewsByPlaceId?placeId=87771
88 rue Oberkampf,87787,48.865501086086,2.3765560838864,Paris,Bar Les Pirates,Bar,http://tour-pedia.org/api/getPlaceDetails?id=87787,http://tour-pedia.org/api/getReviewsByPlaceId?placeId=87787
64 Rue des Pyrénées,87870,48.853012453263,2.4059649011139,Paris,Le Piano,Bar,http://tour-pedia.org/api/getPlaceDetails?id=87870,http://tour-pedia.org/api/getReviewsByPlaceId?placeId=87870
bd clichy,87873,48.823889,2.42285,Paris,The Hap,Bar,http://tour-pedia.org/api/getPlaceDetails?id=87873,http://tour-pedia.org/api/getReviewsByPlaceId?placeId=87873
37 avenue Aristide Briand,87965,48.819314648199,2.3258427535608,Paris,Le Nemrod,Bar,http://tour-pedia.org/api/getPlaceDetails?id=87965,http://tour-pedia.org/api/getReviewsByPlaceId?placeId=87965
"17, rue Boinod",88018,48.8930957747,2.350928548667,Paris,La Casserole,Bar,http://tour-pedia.org/api/getPlaceDetails?id=88018,http://tour-pedia.org/api/getReviewsByPlaceId?placeId=88018
33 rue Boinod,88029,48.894299076462,2.3498894100629,Paris,La piscine,Bar,http://tour-pedia.org/api/getPlaceDetails?id=88029,http://tour-pedia.org/api/getReviewsByPlaceId?placeId=88029
"49, rue Pixérécourt",88057,48.872797267018,2.3964081654873,Paris,Le Clin's,Bar,http://tour-pedia.org/api/getPlaceDetails?id=88057,http://tour-pedia.org/api/getReviewsByPlaceId?placeId=88057
Rue de Thionville,88146,48.889368,2.383544,Paris,Café Mama Kin,Bar,http://tour-pedia.org/api/getPlaceDetails?id=88146,http://tour-pedia.org/api/getReviewsByPlaceId?placeId=88146
,88194,48.860788,2.270721,Paris,OECD-knowledge K.fé,Bar,http://tour-pedia.org/api/getPlaceDetails?id=88194,http://tour-pedia.org/api/getReviewsByPlaceId?placeId=88194
,88221,48.828681884864,2.3277600305164,Paris,Le Merle Moqueur,Bar,http://tour-pedia.org/api/getPlaceDetails?id=88221,http://tour-pedia.org/api/getReviewsByPlaceId?placeId=88221
1 Bis Rue de la Forge Royale,88370,48.850685260443,2.3801464759283,Paris,Red House,Bar,http://tour-pedia.org/api/getPlaceDetails?id=88370,http://tour-pedia.org/api/getReviewsByPlaceId?placeId=88370
,88736,48.866653442383,2.3854455947876,Paris,Les Trois 8,Bar,http://tour-pedia.org/api/getPlaceDetails?id=88736,http://tour-pedia.org/api/getReviewsByPlaceId?placeId=88736
48 Rue Claude Decaen,88826,48.838707,2.396251,Paris,Zic Zinc,Bar,http://tour-pedia.org/api/getPlaceDetails?id=88826,http://tour-pedia.org/api/getReviewsByPlaceId?placeId=88826
Rue de la Tombe Issoire,88833,48.830116346872,2.3338114912706,Paris,Le Petit Club,Bar,http://tour-pedia.org/api/getPlaceDetails?id=88833,http://tour-pedia.org/api/getReviewsByPlaceId?placeId=88833
15 Rue du Maine,88867,48.840620525873,2.3222136497498,Paris,L'Adada Bar,Bar,http://tour-pedia.org/api/getPlaceDetails?id=88867,http://tour-pedia.org/api/getReviewsByPlaceId?placeId=88867
,88951,48.851878971567,2.4014395105315,Paris,Le Buzenval,Bar,http://tour-pedia.org/api/getPlaceDetails?id=88951,http://tour-pedia.org/api/getReviewsByPlaceId?placeId=88951
,89142,48.881509,2.315438,Paris,Cafe des Dames,Bar,http://tour-pedia.org/api/getPlaceDetails?id=89142,http://tour-pedia.org/api/getReviewsByPlaceId?placeId=89142
,89669,48.831025716349,2.2789958586942,Paris,Le Boyard,Bar,http://tour-pedia.org/api/getPlaceDetails?id=89669,http://tour-pedia.org/api/getReviewsByPlaceId?placeId=89669
3 Rue Baudelique,89697,48.892213,2.347014,Paris,Le Supercoin,Bar,http://tour-pedia.org/api/getPlaceDetails?id=89697,http://tour-pedia.org/api/getReviewsByPlaceId?placeId=89697
,89717,48.864978382406,2.3815192555393,Paris,Le Villageois,Bar,http://tour-pedia.org/api/getPlaceDetails?id=89717,http://tour-pedia.org/api/getReviewsByPlaceId?placeId=89717
19 Avenue Victoria,89931,48.858224882245,2.3463719826774,Paris,Le Dernier Bar avant la Fin du Monde,Bar,http://tour-pedia.org/api/getPlaceDetails?id=89931,http://tour-pedia.org/api/getReviewsByPlaceId?placeId=89931
3 Rue Muller,89973,48.886836634206,2.347135052393,Paris,Rosie,Bar,http://tour-pedia.org/api/getPlaceDetails?id=89973,http://tour-pedia.org/api/getReviewsByPlaceId?placeId=89973
92 rue de Hauteville,90057,48.87703779712,2.3513777930845,Paris,Les Animals,Bar,http://tour-pedia.org/api/getPlaceDetails?id=90057,http://tour-pedia.org/api/getReviewsByPlaceId?placeId=90057
24 Rue Dumeril,90118,48.836317448056,2.3583235776927,Paris,La Fût Gueuze,Bar,http://tour-pedia.org/api/getPlaceDetails?id=90118,http://tour-pedia.org/api/getReviewsByPlaceId?placeId=90118
,90190,48.858222961426,2.2722599506378,Paris,Le Café de la Gare,Bar,http://tour-pedia.org/api/getPlaceDetails?id=90190,http://tour-pedia.org/api/getReviewsByPlaceId?placeId=90190
13 Bd Ménilmontant,90231,48.85934015621,2.3891361008655,Paris,le Purgatoire,Bar,http://tour-pedia.org/api/getPlaceDetails?id=90231,http://tour-pedia.org/api/getReviewsByPlaceId?placeId=90231
64 Rue Alexandre Dumas,90342,48.854232788086,2.3950209617615,Paris,Au Bon Accueil,Bar,http://tour-pedia.org/api/getPlaceDetails?id=90342,http://tour-pedia.org/api/getReviewsByPlaceId?placeId=90342
62 Avenue Des Gobelins,90498,48.833244531192,2.3540812580527,Paris,La Manufacture,Bar,http://tour-pedia.org/api/getPlaceDetails?id=90498,http://tour-pedia.org/api/getReviewsByPlaceId?placeId=90498
96 Rue De Ménilmontant,90523,48.869309,2.392211,Paris,Le Bouillon St Stefanus,Bar,http://tour-pedia.org/api/getPlaceDetails?id=90523,http://tour-pedia.org/api/getReviewsByPlaceId?placeId=90523
50 rue Descartes,90534,48.84505,2.349091,Paris,Chapi Chapo,Bar,http://tour-pedia.org/api/getPlaceDetails?id=90534,http://tour-pedia.org/api/getReviewsByPlaceId?placeId=90534
17 Bd Arago,90698,48.835965384756,2.3497142103314,Paris,La Belette Qui Tète,Bar,http://tour-pedia.org/api/getPlaceDetails?id=90698,http://tour-pedia.org/api/getReviewsByPlaceId?placeId=90698
149 rue Montmartre,90855,48.8702531,2.342653,Paris,La Java,Bar,http://tour-pedia.org/api/getPlaceDetails?id=90855,http://tour-pedia.org/api/getReviewsByPlaceId?placeId=90855
,90893,48.825775094274,2.3547998018958,Paris,Le Barachois,Bar,http://tour-pedia.org/api/getPlaceDetails?id=90893,http://tour-pedia.org/api/getReviewsByPlaceId?placeId=90893
98 Rue De Tolbiac,90950,48.826504858192,2.3637678459612,Paris,O Soleil,Bar,http://tour-pedia.org/api/getPlaceDetails?id=90950,http://tour-pedia.org/api/getReviewsByPlaceId?placeId=90950
53 bis Avenue de la Motte-Picquet,90990,48.850123514335,2.2996290175783,Paris,Le Pavillon,Bar,http://tour-pedia.org/api/getPlaceDetails?id=90990,http://tour-pedia.org/api/getReviewsByPlaceId?placeId=90990
,91037,48.87911390215,2.3672048976532,Paris,Le Petit Carillon,Bar,http://tour-pedia.org/api/getPlaceDetails?id=91037,http://tour-pedia.org/api/getReviewsByPlaceId?placeId=91037
3 rue Joseph Dijon,91074,48.89378776728,2.34738049526,Paris,Le Petit Joseph Dijon,Bar,http://tour-pedia.org/api/getPlaceDetails?id=91074,http://tour-pedia.org/api/getReviewsByPlaceId?placeId=91074
94 rue du Mont Cenis,91280,48.894802,2.345581,Paris,Le petit Mont-Cenis,Bar,http://tour-pedia.org/api/getPlaceDetails?id=91280,http://tour-pedia.org/api/getReviewsByPlaceId?placeId=91280
75 place du docteur Félix Lobligeois,91322,48.886754242743,2.31728724849,Paris,Felixio,Bar,http://tour-pedia.org/api/getPlaceDetails?id=91322,http://tour-pedia.org/api/getReviewsByPlaceId?placeId=91322
36 Rue de Paradis,91412,48.875293198209,2.3509612045141,Paris,Le Fantôme,Bar,http://tour-pedia.org/api/getPlaceDetails?id=91412,http://tour-pedia.org/api/getReviewsByPlaceId?placeId=91412
8 passage Thiéré,91564,48.853558,2.374557,Paris,La Mécanique Ondulatoire,Bar,http://tour-pedia.org/api/getPlaceDetails?id=91564,http://tour-pedia.org/api/getReviewsByPlaceId?placeId=91564
,91616,48.845710581119,2.2841946666435,Paris,Loft Keur Keur,Bar,http://tour-pedia.org/api/getPlaceDetails?id=91616,http://tour-pedia.org/api/getReviewsByPlaceId?placeId=91616
181 Avenue Jean Jaurès,91843,48.887702,2.388843,Paris,Café Jean,Bar,http://tour-pedia.org/api/getPlaceDetails?id=91843,http://tour-pedia.org/api/getReviewsByPlaceId?placeId=91843
,88785,48.827384033269,2.4620684233063,Paris,Stade de Softball Mortemart,Baseball Field,http://tour-pedia.org/api/getPlaceDetails?id=88785,http://tour-pedia.org/api/getReviewsByPlaceId?placeId=88785
,90426,48.819803571913,2.4531224861969,Paris,Stade de baseball de Pershing,Baseball Field,http://tour-pedia.org/api/getPlaceDetails?id=90426,http://tour-pedia.org/api/getReviewsByPlaceId?placeId=90426
,89725,48.82695984717,2.4619714082816,Paris,Stade de baseball Mortemart,Baseball Stadium,http://tour-pedia.org/api/getPlaceDetails?id=89725,http://tour-pedia.org/api/getReviewsByPlaceId?placeId=89725
Boulevard Suchet,85653,48.854559292831,2.262040779986,Paris,Stade Suchet,Basketball Court,http://tour-pedia.org/api/getPlaceDetails?id=85653,http://tour-pedia.org/api/getReviewsByPlaceId?placeId=85653
Place Cardinal Lavigerie,88746,48.833113858574,2.4028301239014,Paris,Centre Sportif Cardinal Lavigerie,Basketball Court,http://tour-pedia.org/api/getPlaceDetails?id=88746,http://tour-pedia.org/api/getReviewsByPlaceId?placeId=88746
,90948,48.828742378607,2.361689097771,Paris,Tolbiac,Basketball Court,http://tour-pedia.org/api/getPlaceDetails?id=90948,http://tour-pedia.org/api/getReviewsByPlaceId?placeId=90948
,89908,48.867481843904,2.2722876801443,Paris,Gymnase De Montherlant,Basketball Stadium,http://tour-pedia.org/api/getPlaceDetails?id=89908,http://tour-pedia.org/api/getReviewsByPlaceId?placeId=89908
"11, avenue du Tremblay",90408,48.830670241605,2.4525046348572,Paris,"INSEP - Institut National du Sport, de L'Expertise et de la Performance | Salle M.T. Eyquem",Basketball Stadium,http://tour-pedia.org/api/getPlaceDetails?id=90408,http://tour-pedia.org/api/getReviewsByPlaceId?placeId=90408
Stade Rigoulot,90569,48.826850948959,2.3004372108447,Paris,Paris Basket 15 (PB15),Basketball Stadium,http://tour-pedia.org/api/getPlaceDetails?id=90569,http://tour-pedia.org/api/getReviewsByPlaceId?placeId=90569
8 Quai Saint-Exupery,84049,48.837393432343,2.2642135620117,Paris,Au Trinquet,Beer Garden,http://tour-pedia.org/api/getPlaceDetails?id=84049,http://tour-pedia.org/api/getReviewsByPlaceId?placeId=84049
,85435,48.841144,2.393913,Paris,Estaminet Jenlain,Beer Garden,http://tour-pedia.org/api/getPlaceDetails?id=85435,http://tour-pedia.org/api/getReviewsByPlaceId?placeId=85435
,85455,48.835969607002,2.3223164650502,Paris,Ton Air De Brest,Beer Garden,http://tour-pedia.org/api/getPlaceDetails?id=85455,http://tour-pedia.org/api/getReviewsByPlaceId?placeId=85455
Galerie de la Villette,88514,48.890244191333,2.3907174385921,Paris,La Villette Enchantée,Beer Garden,http://tour-pedia.org/api/getPlaceDetails?id=88514,http://tour-pedia.org/api/getReviewsByPlaceId?placeId=88514
Bois de Boulogne,89601,48.859062123923,2.2380839159949,Paris,Buvettes du Bois de Boulogne,Beer Garden,http://tour-pedia.org/api/getPlaceDetails?id=89601,http://tour-pedia.org/api/getReviewsByPlaceId?placeId=89601
,90343,48.82709419625,2.4170384595371,Paris,Cracki Open Air,Beer Garden,http://tour-pedia.org/api/getPlaceDetails?id=90343,http://tour-pedia.org/api/getReviewsByPlaceId?placeId=90343
Port des Invalides,91341,48.863142236497,2.3154413250427,Paris,En Attendant Rosa,Beer Garden,http://tour-pedia.org/api/getPlaceDetails?id=91341,http://tour-pedia.org/api/getReviewsByPlaceId?placeId=91341
Quai d'Orsay,91385,48.863048737419,2.3128695207011,Paris,Faust,Beer Garden,http://tour-pedia.org/api/getPlaceDetails?id=91385,http://tour-pedia.org/api/getReviewsByPlaceId?placeId=91385
59-63 rue du Département,91888,48.886811325543,2.359601836208,Paris,Les 3 Fauves,Beer Garden,http://tour-pedia.org/api/getPlaceDetails?id=91888,http://tour-pedia.org/api/getReviewsByPlaceId?placeId=91888
"6, av de la Porte de la Chapelle",86470,48.899512399284,2.3590004047982,Paris,Les Bowlings Sympas,Bowling Alley,http://tour-pedia.org/api/getPlaceDetails?id=86470,http://tour-pedia.org/api/getReviewsByPlaceId?placeId=86470
1 rue du Caporal Peugeot,88054,48.886719882575,2.2900356616599,Paris,Bowling Champerret,Bowling Alley,http://tour-pedia.org/api/getPlaceDetails?id=88054,http://tour-pedia.org/api/getReviewsByPlaceId?placeId=88054
Rue Daguerre,84380,48.833801,2.330194,Paris,La Chope Daguerre,Brewery,http://tour-pedia.org/api/getPlaceDetails?id=84380,http://tour-pedia.org/api/getReviewsByPlaceId?placeId=84380
,84464,48.84685171082,2.2854906871794,Paris,Linois,Brewery,http://tour-pedia.org/api/getPlaceDetails?id=84464,http://tour-pedia.org/api/getReviewsByPlaceId?placeId=84464
168 boulevard de Grenelle,85649,48.847699304772,2.3011467712342,Paris,Le Royal Cambronne,Brewery,http://tour-pedia.org/api/getPlaceDetails?id=85649,http://tour-pedia.org/api/getReviewsByPlaceId?placeId=85649
254 rue de la Convention,86220,48.83531373637,2.3027464417408,Paris,Tasco Café,Brewery,http://tour-pedia.org/api/getPlaceDetails?id=86220,http://tour-pedia.org/api/getReviewsByPlaceId?placeId=86220
1 Rue Xaintrailles,86425,48.829599405192,2.3713012426219,Paris,Les Escapades,Brewery,http://tour-pedia.org/api/getPlaceDetails?id=86425,http://tour-pedia.org/api/getReviewsByPlaceId?placeId=86425
38 rue des Entrepreneurs,87063,48.846597,2.286165,Paris,Le Relais Charbon,Brewery,http://tour-pedia.org/api/getPlaceDetails?id=87063,http://tour-pedia.org/api/getReviewsByPlaceId?placeId=87063
197 avenue daumesnil,87490,48.839839581987,2.3941555808189,Paris,les enfants terribles,Brewery,http://tour-pedia.org/api/getPlaceDetails?id=87490,http://tour-pedia.org/api/getReviewsByPlaceId?placeId=87490
110-114 rue de Bercy,87499,48.839397039513,2.3802241524639,Paris,Brasserie Les Spectacles,Brewery,http://tour-pedia.org/api/getPlaceDetails?id=87499,http://tour-pedia.org/api/getReviewsByPlaceId?placeId=87499
1 rue Jouffroy D' Abbans,87768,48.887211950855,2.3138408800457,Paris,Café de la Gare,Brewery,http://tour-pedia.org/api/getPlaceDetails?id=87768,http://tour-pedia.org/api/getReviewsByPlaceId?placeId=87768
9 avenue jean jaures,88525,48.823889,2.42285,Paris,L Ardennais,Brewery,http://tour-pedia.org/api/getPlaceDetails?id=88525,http://tour-pedia.org/api/getReviewsByPlaceId?placeId=88525
,88539,48.83594,2.352281,Paris,Les Tontons,Brewery,http://tour-pedia.org/api/getPlaceDetails?id=88539,http://tour-pedia.org/api/getReviewsByPlaceId?placeId=88539
,88622,48.894343053297,2.3493886775096,Paris,Etoile Ornano,Brewery,http://tour-pedia.org/api/getPlaceDetails?id=88622,http://tour-pedia.org/api/getReviewsByPlaceId?placeId=88622
18 rue de Moscou,88983,48.880580565552,2.3253984223661,Paris,Au Petit Zinc,Brewery,http://tour-pedia.org/api/getPlaceDetails?id=88983,http://tour-pedia.org/api/getReviewsByPlaceId?placeId=88983
320 rue des Pyrénées,89057,48.872719124343,2.3907610308494,Paris,Les Petits Campagnards,Brewery,http://tour-pedia.org/api/getPlaceDetails?id=89057,http://tour-pedia.org/api/getReviewsByPlaceId?placeId=89057
,89071,48.842741125892,2.2550782235175,Paris,Les 2 Stades,Brewery,http://tour-pedia.org/api/getPlaceDetails?id=89071,http://tour-pedia.org/api/getReviewsByPlaceId?placeId=89071
,89073,48.866762,2.310024,Paris,Le Grand Palais Brasserie,Brewery,http://tour-pedia.org/api/getPlaceDetails?id=89073,http://tour-pedia.org/api/getReviewsByPlaceId?placeId=89073
,89714,48.828891088826,2.3994458610663,Paris,Le Paris,Brewery,http://tour-pedia.org/api/getPlaceDetails?id=89714,http://tour-pedia.org/api/getReviewsByPlaceId?placeId=89714
,89948,48.84587097168,2.2773466110229,Paris,L'apollinaire,Brewery,http://tour-pedia.org/api/getPlaceDetails?id=89948,http://tour-pedia.org/api/getReviewsByPlaceId?placeId=89948
,90010,48.87877,2.259773,Paris,Le Club House,Brewery,http://tour-pedia.org/api/getPlaceDetails?id=90010,http://tour-pedia.org/api/getReviewsByPlaceId?placeId=90010
8 rue de l'Olive,90015,48.890665809685,2.3613460628416,Paris,Brasserie de l'Olive,Brewery,http://tour-pedia.org/api/getPlaceDetails?id=90015,http://tour-pedia.org/api/getReviewsByPlaceId?placeId=90015
26 rue de la Croix Nivert,90423,48.84662951449,2.2995097131217,Paris,Le Comptoir Moderne,Brewery,http://tour-pedia.org/api/getPlaceDetails?id=90423,http://tour-pedia.org/api/getReviewsByPlaceId?placeId=90423
,90434,48.846033108264,2.3045928662682,Paris,Cafétéria Condé Miollis,Brewery,http://tour-pedia.org/api/getPlaceDetails?id=90434,http://tour-pedia.org/api/getReviewsByPlaceId?placeId=90434
,90519,48.854217529297,2.2554910182953,Paris,The Karly Flight,Brewery,http://tour-pedia.org/api/getPlaceDetails?id=90519,http://tour-pedia.org/api/getReviewsByPlaceId?placeId=90519
,90960,48.826640421973,2.3635768362974,Paris,Le Prétexte,Brewery,http://tour-pedia.org/api/getPlaceDetails?id=90960,http://tour-pedia.org/api/getReviewsByPlaceId?placeId=90960
96 rue du Commerce,90962,48.843720317089,2.293074131012,Paris,À la Tour Eiffel,Brewery,http://tour-pedia.org/api/getPlaceDetails?id=90962,http://tour-pedia.org/api/getReviewsByPlaceId?placeId=90962
Bois De Boulogne,90989,48.851261,2.23851,Paris,Châlet Les Bosquettes,Brewery,http://tour-pedia.org/api/getPlaceDetails?id=90989,http://tour-pedia.org/api/getReviewsByPlaceId?placeId=90989
,91356,48.851268,2.275061,Paris,Le Recepteur,Brewery,http://tour-pedia.org/api/getPlaceDetails?id=91356,http://tour-pedia.org/api/getReviewsByPlaceId?placeId=91356
,91398,48.883343269562,2.3070372443385,Paris,Brasserie Du Lycee Carnot,Brewery,http://tour-pedia.org/api/getPlaceDetails?id=91398,http://tour-pedia.org/api/getReviewsByPlaceId?placeId=91398
Pont des Arts,83499,48.858461116978,2.337561249733,Paris,Pont des Arts,Bridge,http://tour-pedia.org/api/getPlaceDetails?id=83499,http://tour-pedia.org/api/getReviewsByPlaceId?placeId=83499
Passerelle Simone de Beauvoir,83521,48.835264284161,2.3780786991119,Paris,Passerelle Simone de Beauvoir,Bridge,http://tour-pedia.org/api/getPlaceDetails?id=83521,http://tour-pedia.org/api/getReviewsByPlaceId?placeId=83521
119 Avenue Daumesnil,83756,48.844592092498,2.3827806144119,Paris,Viaduc des Arts,Bridge,http://tour-pedia.org/api/getPlaceDetails?id=83756,http://tour-pedia.org/api/getReviewsByPlaceId?placeId=83756
Pont de l'Alma,84857,48.863472564978,2.301721572876,Paris,Pont de l'Alma,Bridge,http://tour-pedia.org/api/getPlaceDetails?id=84857,http://tour-pedia.org/api/getReviewsByPlaceId?placeId=84857
Passerelle Solferino,85273,48.861880955236,2.3247241973877,Paris,Passerelle Léopold-Sédar-Senghor,Bridge,http://tour-pedia.org/api/getPlaceDetails?id=85273,http://tour-pedia.org/api/getReviewsByPlaceId?placeId=85273
Pont de Bir-Hakeim,85797,48.855750490949,2.287495136261,Paris,Pont de Bir-Hakeim,Bridge,http://tour-pedia.org/api/getPlaceDetails?id=85797,http://tour-pedia.org/api/getReviewsByPlaceId?placeId=85797
Pont de la Tournelle,85905,48.850664141608,2.3554676771164,Paris,Pont de la Tournelle,Bridge,http://tour-pedia.org/api/getPlaceDetails?id=85905,http://tour-pedia.org/api/getReviewsByPlaceId?placeId=85905
Pont Saint-Louis,85935,48.852753807763,2.3527318239212,Paris,Pont Saint-Louis,Bridge,http://tour-pedia.org/api/getPlaceDetails?id=85935,http://tour-pedia.org/api/getReviewsByPlaceId?placeId=85935
Pont de Sully,86245,48.850117001772,2.3590672016144,Paris,Pont de Sully,Bridge,http://tour-pedia.org/api/getPlaceDetails?id=86245,http://tour-pedia.org/api/getReviewsByPlaceId?placeId=86245
Pont Charles de Gaulle,86304,48.842591,2.369099,Paris,Pont Charles de Gaulle,Bridge,http://tour-pedia.org/api/getPlaceDetails?id=86304,http://tour-pedia.org/api/getReviewsByPlaceId?placeId=86304
Pont de la Concorde,86317,48.86338,2.31957,Paris,Pont de la Concorde,Bridge,http://tour-pedia.org/api/getPlaceDetails?id=86317,http://tour-pedia.org/api/getReviewsByPlaceId?placeId=86317
Pont d'Iéna,86691,48.859745789504,2.2921085357666,Paris,Pont d'Iéna,Bridge,http://tour-pedia.org/api/getPlaceDetails?id=86691,http://tour-pedia.org/api/getReviewsByPlaceId?placeId=86691
31 Quai de la Loire,86724,48.887193303682,2.3775007111179,Paris,Pont Qui Bouge,Bridge,http://tour-pedia.org/api/getPlaceDetails?id=86724,http://tour-pedia.org/api/getReviewsByPlaceId?placeId=86724
Pont de Grenelle,87141,48.850244079944,2.2800493240356,Paris,Pont de Grenelle,Bridge,http://tour-pedia.org/api/getPlaceDetails?id=87141,http://tour-pedia.org/api/getReviewsByPlaceId?placeId=87141
Quai de Jemmapes,87328,48.873021160517,2.3639273643494,Paris,Pont Tournant de la Grange aux Belles,Bridge,http://tour-pedia.org/api/getPlaceDetails?id=87328,http://tour-pedia.org/api/getReviewsByPlaceId?placeId=87328
Pont d'Austerlitz,87708,48.844973595061,2.3660945892334,Paris,Pont d'Austerlitz,Bridge,http://tour-pedia.org/api/getPlaceDetails?id=87708,http://tour-pedia.org/api/getReviewsByPlaceId?placeId=87708
Pont de l'Archevêché,87716,48.851621,2.351595,Paris,Pont de l'Archevêché,Bridge,http://tour-pedia.org/api/getPlaceDetails?id=87716,http://tour-pedia.org/api/getReviewsByPlaceId?placeId=87716
Place de l'Europe,87798,48.878835803234,2.3236355144946,Paris,Place de l'Europe,Bridge,http://tour-pedia.org/api/getPlaceDetails?id=87798,http://tour-pedia.org/api/getReviewsByPlaceId?placeId=87798
Pont National,87822,48.828000489152,2.3869514465332,Paris,Pont National,Bridge,http://tour-pedia.org/api/getPlaceDetails?id=87822,http://tour-pedia.org/api/getReviewsByPlaceId?placeId=87822
Bassin de la Villette,87890,48.888395297613,2.3793983459473,Paris,Pont Levant,Bridge,http://tour-pedia.org/api/getPlaceDetails?id=87890,http://tour-pedia.org/api/getReviewsByPlaceId?placeId=87890
Pont de Tolbiac,87959,48.832937300649,2.3810505867004,Paris,Pont de Tolbiac,Bridge,http://tour-pedia.org/api/getPlaceDetails?id=87959,http://tour-pedia.org/api/getReviewsByPlaceId?placeId=87959
Pont de Bercy,87960,48.838149028681,2.3749887943268,Paris,Pont de Bercy,Bridge,http://tour-pedia.org/api/getPlaceDetails?id=87960,http://tour-pedia.org/api/getReviewsByPlaceId?placeId=87960
,87963,48.885301445104,2.3309470348602,Paris,Pont De Caulaincourt,Bridge,http://tour-pedia.org/api/getPlaceDetails?id=87963,http://tour-pedia.org/api/getReviewsByPlaceId?placeId=87963
Rue Dieu,88080,48.870882941582,2.3656439781189,Paris,Pont Tournant de la Rue Dieu,Bridge,http://tour-pedia.org/api/getPlaceDetails?id=88080,http://tour-pedia.org/api/getReviewsByPlaceId?placeId=88080
2 rue des Meuniers,88354,48.833274973145,2.3989873492144,Paris,Passerelle Des Meuniers,Bridge,http://tour-pedia.org/api/getPlaceDetails?id=88354,http://tour-pedia.org/api/getReviewsByPlaceId?placeId=88354
Pont des Invalides,88795,48.863592551244,2.31036901474,Paris,Pont des Invalides,Bridge,http://tour-pedia.org/api/getPlaceDetails?id=88795,http://tour-pedia.org/api/getReviewsByPlaceId?placeId=88795
,89907,48.817693436001,2.3341658287357,Paris,Passerelle Arts Et Metiers,Bridge,http://tour-pedia.org/api/getPlaceDetails?id=89907,http://tour-pedia.org/api/getReviewsByPlaceId?placeId=89907
Jardin de Reuilly,90768,48.844106019861,2.3943338402561,Paris,Passerelle BZ/12,Bridge,http://tour-pedia.org/api/getPlaceDetails?id=90768,http://tour-pedia.org/api/getReviewsByPlaceId?placeId=90768
20 Avenue Rachel,83461,48.887548749415,2.3304319381714,Paris,Cimetière de Montmartre,Cemetery,http://tour-pedia.org/api/getPlaceDetails?id=83461,http://tour-pedia.org/api/getReviewsByPlaceId?placeId=83461
16 Rue du Repos,83486,48.861326879657,2.3942041397095,Paris,Cimetière du Père Lachaise,Cemetery,http://tour-pedia.org/api/getPlaceDetails?id=83486,http://tour-pedia.org/api/getReviewsByPlaceId?placeId=83486
Hôtel des Invalides,83511,48.855623426753,2.3125791549683,Paris,Tombeau de Napoléon,Cemetery,http://tour-pedia.org/api/getPlaceDetails?id=83511,http://tour-pedia.org/api/getReviewsByPlaceId?placeId=83511
Cimetière du Père Lachaise,85417,48.859323236668,2.393716237905,Paris,Tombe de Jim Morrison,Cemetery,http://tour-pedia.org/api/getPlaceDetails?id=85417,http://tour-pedia.org/api/getReviewsByPlaceId?placeId=85417
Cimetière du Père Lachaise,85536,48.859604618311,2.3987531661987,Paris,Tombe d'Edith Piaf,Cemetery,http://tour-pedia.org/api/getPlaceDetails?id=85536,http://tour-pedia.org/api/getReviewsByPlaceId?placeId=85536
Cimetière du Père Lachaise,85537,48.861788,2.397981,Paris,Tombe d'Oscar Wilde,Cemetery,http://tour-pedia.org/api/getPlaceDetails?id=85537,http://tour-pedia.org/api/getReviewsByPlaceId?placeId=85537
2 Rue du Commandant Schloesing,87052,48.862413850165,2.2850918769836,Paris,Cimetière de Passy,Cemetery,http://tour-pedia.org/api/getPlaceDetails?id=87052,http://tour-pedia.org/api/getReviewsByPlaceId?placeId=87052
,90874,48.885678269508,2.3314574155825,Paris,Cemetière de Mont Martre,Cemetery,http://tour-pedia.org/api/getPlaceDetails?id=90874,http://tour-pedia.org/api/getReviewsByPlaceId?placeId=90874
Place de la Madeleine,83456,48.869753812208,2.3242735862732,Paris,Église de la Madeleine,Church,http://tour-pedia.org/api/getPlaceDetails?id=83456,http://tour-pedia.org/api/getReviewsByPlaceId?placeId=83456
2 Place du Louvre,83473,48.859519915405,2.3413056135178,Paris,Église Saint-Germain l'Auxerrois,Church,http://tour-pedia.org/api/getPlaceDetails?id=83473,http://tour-pedia.org/api/getReviewsByPlaceId?placeId=83473
1 Place Alphonse Laveran,83475,48.840575,2.341906,Paris,Église du Val-de-Grâce,Church,http://tour-pedia.org/api/getPlaceDetails?id=83475,http://tour-pedia.org/api/getReviewsByPlaceId?placeId=83475
284 rue Saint-Honoré,83492,48.865181,2.332546,Paris,Église Saint-Roch,Church,http://tour-pedia.org/api/getPlaceDetails?id=83492,http://tour-pedia.org/api/getReviewsByPlaceId?placeId=83492
Place Saint-Sulpice,83495,48.850879465969,2.3342514038086,Paris,Église Saint-Sulpice,Church,http://tour-pedia.org/api/getPlaceDetails?id=83495,http://tour-pedia.org/api/getReviewsByPlaceId?placeId=83495
88 Rue de l'Assomption,83526,48.855703186684,2.2667876578862,Paris,Notre-Dame de l'Assomption,Church,http://tour-pedia.org/api/getPlaceDetails?id=83526,http://tour-pedia.org/api/getReviewsByPlaceId?placeId=83526
188 rue de Tolbiac,83527,48.826182,2.350125,Paris,Église Sainte-Anne de la Butte-aux-Cailles,Church,http://tour-pedia.org/api/getPlaceDetails?id=83527,http://tour-pedia.org/api/getReviewsByPlaceId?placeId=83527
4 rue Saint Christophe,83528,48.844636,2.279364,Paris,Église Saint-Christophe de Javel,Church,http://tour-pedia.org/api/getPlaceDetails?id=83528,http://tour-pedia.org/api/getReviewsByPlaceId?placeId=83528
Place du Cardinal Amette,83529,48.850994,2.296472,Paris,Église Saint-Léon,Church,http://tour-pedia.org/api/getPlaceDetails?id=83529,http://tour-pedia.org/api/getReviewsByPlaceId?placeId=83529
122 rue de la Glaciere,83531,48.829248348936,2.3432422563486,Paris,Église Albert le Grand,Church,http://tour-pedia.org/api/getPlaceDetails?id=83531,http://tour-pedia.org/api/getReviewsByPlaceId?placeId=83531
Rue Ampère,83532,48.88478,2.304994,Paris,Église Saint-François-de-Sales,Church,http://tour-pedia.org/api/getPlaceDetails?id=83532,http://tour-pedia.org/api/getReviewsByPlaceId?placeId=83532
79 rue Alexandre Dumas,83541,48.855161,2.397997,Paris,Église Saint-Jean-Bosco,Church,http://tour-pedia.org/api/getPlaceDetails?id=83541,http://tour-pedia.org/api/getReviewsByPlaceId?placeId=83541
52 Boulevard Lefebvre,83542,48.829902,2.294455,Paris,Église Saint-Antoine de Padoue,Church,http://tour-pedia.org/api/getPlaceDetails?id=83542,http://tour-pedia.org/api/getReviewsByPlaceId?placeId=83542
Avenue de la Porte du Pré Saint-Gervais,83546,48.879222,2.402498,Paris,Église de Marie-Médiatrice-de-Toutes-les-Grâces,Church,http://tour-pedia.org/api/getPlaceDetails?id=83546,http://tour-pedia.org/api/getReviewsByPlaceId?placeId=83546
Place d'Estienne d'Orves,83547,48.877226763453,2.3314297199249,Paris,Église de la Trinité,Church,http://tour-pedia.org/api/getPlaceDetails?id=83547,http://tour-pedia.org/api/getReviewsByPlaceId?placeId=83547
19 rue Cortambert,83548,48.862082885633,2.2802096628518,Paris,Église Réformée de Passy Annonciation,Church,http://tour-pedia.org/api/getPlaceDetails?id=83548,http://tour-pedia.org/api/getReviewsByPlaceId?placeId=83548
14 Rue Gerbert,83549,48.839521,2.298396,Paris,Église Saint-Lambert de Vaugirard,Church,http://tour-pedia.org/api/getPlaceDetails?id=83549,http://tour-pedia.org/api/getReviewsByPlaceId?placeId=83549
154 Rue du Faubourg Saint-Honoré,83550,48.873254030329,2.3105192184448,Paris,Église Saint-Philippe du Roule,Church,http://tour-pedia.org/api/getPlaceDetails?id=83550,http://tour-pedia.org/api/getReviewsByPlaceId?placeId=83550
82 avenue du Général Leclerc,83551,48.828749164245,2.3270416259766,Paris,Église Saint-Pierre-de-Montrouge,Church,http://tour-pedia.org/api/getPlaceDetails?id=83551,http://tour-pedia.org/api/getReviewsByPlaceId?placeId=83551
92 rue Saint-Dominique,83552,48.859596,2.305203,Paris,Église Saint-Pierre-du-Gros-Caillou,Church,http://tour-pedia.org/api/getPlaceDetails?id=83552,http://tour-pedia.org/api/getReviewsByPlaceId?placeId=83552
93 rue de Crimée,83553,48.883178002598,2.3820462838348,Paris,Église Saint-Serge,Church,http://tour-pedia.org/api/getPlaceDetails?id=83553,http://tour-pedia.org/api/getReviewsByPlaceId?placeId=83553
8 Avenue César Caire,83554,48.876090721004,2.3189789056778,Paris,Église Saint-Augustin,Church,http://tour-pedia.org/api/getPlaceDetails?id=83554,http://tour-pedia.org/api/getReviewsByPlaceId?placeId=83554
2 avenue Stéphane Mallarmé,83555,48.887051,2.293184,Paris,Église Sainte-Odile,Church,http://tour-pedia.org/api/getPlaceDetails?id=83555,http://tour-pedia.org/api/getReviewsByPlaceId?placeId=83555
7 Place du Président Mithouard,83556,48.850780628672,2.3137378692627,Paris,Église Saint-François Xavier,Church,http://tour-pedia.org/api/getPlaceDetails?id=83556,http://tour-pedia.org/api/getReviewsByPlaceId?placeId=83556
66 avenue Raymond Poincaré,83557,48.868404,2.2858395285714,Paris,Église Saint-Honoré d'Eylau,Church,http://tour-pedia.org/api/getPlaceDetails?id=83557,http://tour-pedia.org/api/getReviewsByPlaceId?placeId=83557
2 rue du Mont-Cenis,83558,48.886707,2.342,Paris,Église Saint-Pierre de Montmartre,Church,http://tour-pedia.org/api/getPlaceDetails?id=83558,http://tour-pedia.org/api/getReviewsByPlaceId?placeId=83558
68 rue de Turenne,83559,48.859996,2.364882,Paris,Église Saint-Denis-du-Saint-Sacrement,Church,http://tour-pedia.org/api/getPlaceDetails?id=83559,http://tour-pedia.org/api/getReviewsByPlaceId?placeId=83559
139 rue de Bellevile,83561,48.875574,2.38934,Paris,Église Saint Jean-Baptiste de Belleville,Church,http://tour-pedia.org/api/getPlaceDetails?id=83561,http://tour-pedia.org/api/getReviewsByPlaceId?placeId=83561
Place Étienne Pernet,83562,48.843198,2.292581,Paris,Église Saint-Jean-Baptiste de Grenelle,Church,http://tour-pedia.org/api/getPlaceDetails?id=83562,http://tour-pedia.org/api/getReviewsByPlaceId?placeId=83562
Place du Docteur Félix Lobligeois,83563,48.886797,2.317879,Paris,Église Sainte-Marie des Batignolles,Church,http://tour-pedia.org/api/getPlaceDetails?id=83563,http://tour-pedia.org/api/getReviewsByPlaceId?placeId=83563
9 rue Médéric,83564,48.880539933732,2.3030265394547,Paris,Eglise Suédoise (Svenska Kirkan),Church,http://tour-pedia.org/api/getPlaceDetails?id=83564,http://tour-pedia.org/api/getReviewsByPlaceId?placeId=83564
Rue Notre-Dame de Lorette,83568,48.876365913778,2.3388862609863,Paris,Église Notre-Dame de Lorette,Church,http://tour-pedia.org/api/getPlaceDetails?id=83568,http://tour-pedia.org/api/getReviewsByPlaceId?placeId=83568
23 rue du Simplon,83765,48.89436136496,2.3499011977541,Paris,Église Orthodoxe Serbe,Church,http://tour-pedia.org/api/getPlaceDetails?id=83765,http://tour-pedia.org/api/getReviewsByPlaceId?placeId=83765
9 Rue Saint Bruno,83768,48.885295,2.356213,Paris,Salle Saint Bruno,Church,http://tour-pedia.org/api/getPlaceDetails?id=83768,http://tour-pedia.org/api/getReviewsByPlaceId?placeId=83768
140 Rue du Bac,83792,48.850900880812,2.3235664108403,Paris,Chapelle Notre-Dame de la Médaille Miraculeuse,Church,http://tour-pedia.org/api/getPlaceDetails?id=83792,http://tour-pedia.org/api/getReviewsByPlaceId?placeId=83792
23 bis Rue Las Cases,84071,48.858574056544,2.3193597793579,Paris,Basilique Sainte-Clotilde,Church,http://tour-pedia.org/api/getPlaceDetails?id=84071,http://tour-pedia.org/api/getReviewsByPlaceId?placeId=84071
2 Impasse Saint-Eustache,84133,48.863465506953,2.3450714349747,Paris,Église Saint-Eustache,Church,http://tour-pedia.org/api/getPlaceDetails?id=84133,http://tour-pedia.org/api/getReviewsByPlaceId?placeId=84133
23 rue des Bernardins,84301,48.849162,2.350288,Paris,Église Saint-Nicolas du Chardonnet,Church,http://tour-pedia.org/api/getPlaceDetails?id=84301,http://tour-pedia.org/api/getReviewsByPlaceId?placeId=84301
44 Rue Molitor,84563,48.845331065555,2.2599948239672,Paris,Paroisse Saint François de Molitor,Church,http://tour-pedia.org/api/getPlaceDetails?id=84563,http://tour-pedia.org/api/getReviewsByPlaceId?placeId=84563
,84772,48.844885,2.388988,Paris,Église Saint Éloi,Church,http://tour-pedia.org/api/getPlaceDetails?id=84772,http://tour-pedia.org/api/getReviewsByPlaceId?placeId=84772
48 rue Madame,85205,48.847550407275,2.3315856501649,Paris,Trinity Church,Church,http://tour-pedia.org/api/getPlaceDetails?id=85205,http://tour-pedia.org/api/getReviewsByPlaceId?placeId=85205
36 Rue Saint-Bernard,85403,48.852897,2.381445,Paris,Église Sainte-Marguerite,Church,http://tour-pedia.org/api/getPlaceDetails?id=85403,http://tour-pedia.org/api/getReviewsByPlaceId?placeId=85403
rue de la Croix St Simon,85644,48.854398,2.407962,Paris,Eglise Saint-Charles,Church,http://tour-pedia.org/api/getPlaceDetails?id=85644,http://tour-pedia.org/api/getReviewsByPlaceId?placeId=85644
Rue Saint-Maur,85885,48.869062207883,2.3736476898193,Paris,Église Saint-Joseph-des-Nations,Church,http://tour-pedia.org/api/getPlaceDetails?id=85885,http://tour-pedia.org/api/getReviewsByPlaceId?placeId=85885
254 Rue Saint-Martin,85906,48.865544,2.353888,Paris,Église Saint-Nicolas-des-Champs,Church,http://tour-pedia.org/api/getPlaceDetails?id=85906,http://tour-pedia.org/api/getReviewsByPlaceId?placeId=85906
10 Rue de l'Annonciation,86025,48.856145799721,2.2803926467896,Paris,Paroisse Notre Dame de Grace de Passy,Church,http://tour-pedia.org/api/getPlaceDetails?id=86025,http://tour-pedia.org/api/getReviewsByPlaceId?placeId=86025
,86066,48.894318611098,2.349803036916,Paris,Notre Dame de Bon Conseil,Church,http://tour-pedia.org/api/getPlaceDetails?id=86066,http://tour-pedia.org/api/getReviewsByPlaceId?placeId=86066
,86078,48.890971,2.34120008,Paris,La Maison Verte,Church,http://tour-pedia.org/api/getPlaceDetails?id=86078,http://tour-pedia.org/api/getReviewsByPlaceId?placeId=86078
Place de l'Église d'Auteuil,86135,48.847203,2.269422,Paris,Église Notre-Dame-d'Auteuil,Church,http://tour-pedia.org/api/getPlaceDetails?id=86135,http://tour-pedia.org/api/getReviewsByPlaceId?placeId=86135
40 Rue Jean de La Fontaine,86168,48.851493664795,2.2712087631226,Paris,Chapelle Sainte Thérèse,Church,http://tour-pedia.org/api/getPlaceDetails?id=86168,http://tour-pedia.org/api/getReviewsByPlaceId?placeId=86168
Place Tristan Bernard,86199,48.878791,2.290851,Paris,Église Saint-Ferdinand-des-Ternes,Church,http://tour-pedia.org/api/getPlaceDetails?id=86199,http://tour-pedia.org/api/getReviewsByPlaceId?placeId=86199
Place des Petits Pères,86301,48.866772,2.341013,Paris,Basilique Notre-Dame-des-Victoires,Church,http://tour-pedia.org/api/getPlaceDetails?id=86301,http://tour-pedia.org/api/getReviewsByPlaceId?placeId=86301
92 Bis Boulevard de Montparnasse,86433,48.843477,2.327181,Paris,Église Notre-Dame-des-Champs,Church,http://tour-pedia.org/api/getPlaceDetails?id=86433,http://tour-pedia.org/api/getReviewsByPlaceId?placeId=86433
65 boulevard de Clichy,86479,48.883697176058,2.3328540659714,Paris,La Chapelle Sainte Rita,Church,http://tour-pedia.org/api/getPlaceDetails?id=86479,http://tour-pedia.org/api/getReviewsByPlaceId?placeId=86479
13 rue du Perche,86520,48.861069,2.360551,Paris,Eglise Armenienne du Marais,Church,http://tour-pedia.org/api/getPlaceDetails?id=86520,http://tour-pedia.org/api/getReviewsByPlaceId?placeId=86520
6 Place de Bitche,86525,48.889201,2.379621,Paris,Église Saint-Jacques-Saint-Christophe de la Villette,Church,http://tour-pedia.org/api/getPlaceDetails?id=86525,http://tour-pedia.org/api/getReviewsByPlaceId?placeId=86525
99 Rue Saint-Antoine,86665,48.854755146112,2.3615026473999,Paris,Église Saint-Paul Saint-Louis,Church,http://tour-pedia.org/api/getPlaceDetails?id=86665,http://tour-pedia.org/api/getReviewsByPlaceId?placeId=86665
13 rue Barres,86743,48.855496362234,2.3546576499939,Paris,Église Saint-Gervais Saint-Protais,Church,http://tour-pedia.org/api/getPlaceDetails?id=86743,http://tour-pedia.org/api/getReviewsByPlaceId?placeId=86743
25 Rue de la Lune,86804,48.869636,2.349932,Paris,Église Notre-Dame-de-Bonne-Nouvelle,Church,http://tour-pedia.org/api/getPlaceDetails?id=86804,http://tour-pedia.org/api/getReviewsByPlaceId?placeId=86804
59 rue Vercingétorix,86849,48.836034,2.31701,Paris,Église Notre-Dame-du-Travail,Church,http://tour-pedia.org/api/getPlaceDetails?id=86849,http://tour-pedia.org/api/getReviewsByPlaceId?placeId=86849
"23, rue Jean-Goujon",86884,48.865623895659,2.3048845286287,Paris,L'Eglise Notre-Dame de Consolation,Church,http://tour-pedia.org/api/getPlaceDetails?id=86884,http://tour-pedia.org/api/getReviewsByPlaceId?placeId=86884
12 rue Daru,86888,48.877594,2.302033,Paris,Cathédrale Saint-Alexandre-Nevsky,Church,http://tour-pedia.org/api/getPlaceDetails?id=86888,http://tour-pedia.org/api/getReviewsByPlaceId?placeId=86888
Cathédrale américaine de la Sainte-Trinité de Paris,86957,48.867536,2.300807,Paris,American Cathedral in Paris,Church,http://tour-pedia.org/api/getPlaceDetails?id=86957,http://tour-pedia.org/api/getReviewsByPlaceId?placeId=86957
3 rue des Prêtres Saint-Séverin,87014,48.852114915712,2.3456132411957,Paris,Église Saint-Séverin,Church,http://tour-pedia.org/api/getPlaceDetails?id=87014,http://tour-pedia.org/api/getReviewsByPlaceId?placeId=87014
Place Sainte-Geneviève,87194,48.846544561178,2.3479628562927,Paris,Église Saint-Étienne-du-Mont,Church,http://tour-pedia.org/api/getPlaceDetails?id=87194,http://tour-pedia.org/api/getReviewsByPlaceId?placeId=87194
3 Place de Ménilmontant,87231,48.868504683151,2.387267947197,Paris,Église Notre-Dame de la Croix,Church,http://tour-pedia.org/api/getPlaceDetails?id=87231,http://tour-pedia.org/api/getReviewsByPlaceId?placeId=87231
195 Rue du Temple,87319,48.866061,2.360719,Paris,Église Sainte-Élisabeth-de-Hongrie,Church,http://tour-pedia.org/api/getPlaceDetails?id=87319,http://tour-pedia.org/api/getReviewsByPlaceId?placeId=87319
19 rue des Abesses,87332,48.884252,2.338041,Paris,Église Saint-Jean de Montmartre,Church,http://tour-pedia.org/api/getPlaceDetails?id=87332,http://tour-pedia.org/api/getReviewsByPlaceId?placeId=87332
Bobino,87333,48.839874647623,2.3232150224521,Paris,Hillsong Paris,Church,http://tour-pedia.org/api/getPlaceDetails?id=87333,http://tour-pedia.org/api/getReviewsByPlaceId?placeId=87333
79 Rue Galande,87406,48.85219179689,2.3469456314934,Paris,Église Saint Julien Le Pauvre,Church,http://tour-pedia.org/api/getPlaceDetails?id=87406,http://tour-pedia.org/api/getReviewsByPlaceId?placeId=87406
33 Rue De Sèvres,87407,48.850594630679,2.3257098119736,Paris,Eglise Saint-Ignace,Church,http://tour-pedia.org/api/getPlaceDetails?id=87407,http://tour-pedia.org/api/getReviewsByPlaceId?placeId=87407
17 Rue du Docteur Roux,87408,48.84127,2.312295,Paris,Église Saint-Jean-Baptiste-de-La-Salle,Church,http://tour-pedia.org/api/getPlaceDetails?id=87408,http://tour-pedia.org/api/getReviewsByPlaceId?placeId=87408
20 rue cortambert,87450,48.871619072919,2.2958884564396,Paris,Chapelle notre dame,Church,http://tour-pedia.org/api/getPlaceDetails?id=87450,http://tour-pedia.org/api/getReviewsByPlaceId?placeId=87450
Cimetière du Père Lachaise,87466,48.862435024681,2.395920753479,Paris,Crématorium du Père Lachaise,Church,http://tour-pedia.org/api/getPlaceDetails?id=87466,http://tour-pedia.org/api/getReviewsByPlaceId?placeId=87466
,87473,48.853851422111,2.3654283895008,Paris,St Paul,Church,http://tour-pedia.org/api/getPlaceDetails?id=87473,http://tour-pedia.org/api/getReviewsByPlaceId?placeId=87473
71 boulevard Voltaire,87477,48.861326879657,2.3760294914246,Paris,Église Saint-Ambroise,Church,http://tour-pedia.org/api/getPlaceDetails?id=87477,http://tour-pedia.org/api/getReviewsByPlaceId?placeId=87477
186 Avenue Daumesnil,87483,48.838206,2.397639,Paris,Église du Saint-Esprit,Church,http://tour-pedia.org/api/getPlaceDetails?id=87483,http://tour-pedia.org/api/getReviewsByPlaceId?placeId=87483
Rue Affre,87570,48.886081,2.355065,Paris,Église Saint-Bernard de la Chapelle,Church,http://tour-pedia.org/api/getPlaceDetails?id=87570,http://tour-pedia.org/api/getReviewsByPlaceId?placeId=87570
Place du cardinal amette,87597,48.85051907211,2.2961748910274,Paris,Paroisse Saint Léon,Church,http://tour-pedia.org/api/getPlaceDetails?id=87597,http://tour-pedia.org/api/getReviewsByPlaceId?placeId=87597
Place Franz Liszt,87618,48.878973,2.35193,Paris,Église Saint-Vincent-de-Paul,Church,http://tour-pedia.org/api/getPlaceDetails?id=87618,http://tour-pedia.org/api/getReviewsByPlaceId?placeId=87618
5-17 rue d'ULM,87632,48.844384028766,2.3453450202942,Paris,Paroisse Notre-Dame du Liban,Church,http://tour-pedia.org/api/getPlaceDetails?id=87632,http://tour-pedia.org/api/getReviewsByPlaceId?placeId=87632
Place de la Porte de Saint-Cloud,87634,48.838722,2.256139,Paris,Église Sainte-Jeanne-de-Chantal,Church,http://tour-pedia.org/api/getPlaceDetails?id=87634,http://tour-pedia.org/api/getReviewsByPlaceId?placeId=87634
69 rue de Sèvres,87712,48.848891028262,2.3219977919658,Paris,Chapelle Saint Vincent de Paul,Church,http://tour-pedia.org/api/getPlaceDetails?id=87712,http://tour-pedia.org/api/getReviewsByPlaceId?placeId=87712
92 Rue Saint-Denis,87794,48.862914977968,2.3499369621277,Paris,Église Saint-Leu Saint-Gilles,Church,http://tour-pedia.org/api/getPlaceDetails?id=87794,http://tour-pedia.org/api/getReviewsByPlaceId?placeId=87794
16 Rue de la Chapelle,87802,48.89133,2.36021,Paris,Église Saint-Denys de la Chapelle,Church,http://tour-pedia.org/api/getPlaceDetails?id=87802,http://tour-pedia.org/api/getReviewsByPlaceId?placeId=87802
Place Lachambaudie,87804,48.836313,2.387249,Paris,Église Notre-Dame-de-la-Nativité de Bercy,Church,http://tour-pedia.org/api/getPlaceDetails?id=87804,http://tour-pedia.org/api/getReviewsByPlaceId?placeId=87804
Jardin d'Alleray-Procession,87913,48.83688125,2.30868284,Paris,Notre-Dame de l'Arche d'Alliance,Church,http://tour-pedia.org/api/getPlaceDetails?id=87913,http://tour-pedia.org/api/getReviewsByPlaceId?placeId=87913
Rue Saint-Martin,87952,48.859075222794,2.3508596420288,Paris,Église Saint-Merry,Church,http://tour-pedia.org/api/getPlaceDetails?id=87952,http://tour-pedia.org/api/getReviewsByPlaceId?placeId=87952
55 boulevard de Ménilmontant,88099,48.861726,2.387128,Paris,Basilique Notre-Dame-du-Perpétuel-Secours,Church,http://tour-pedia.org/api/getPlaceDetails?id=88099,http://tour-pedia.org/api/getReviewsByPlaceId?placeId=88099
20 Rue de la Tombe Issoire,88148,48.83203,2.33504,Paris,Église Saint-Dominique,Church,http://tour-pedia.org/api/getPlaceDetails?id=88148,http://tour-pedia.org/api/getReviewsByPlaceId?placeId=88148
,88175,48.869423193792,2.3472703661061,Paris,L'église Af83,Church,http://tour-pedia.org/api/getPlaceDetails?id=88175,http://tour-pedia.org/api/getReviewsByPlaceId?placeId=88175
20 Rue des Tanneries,88196,48.833240979895,2.346031665802,Paris,Couvent Dominicain De St Jacques,Church,http://tour-pedia.org/api/getPlaceDetails?id=88196,http://tour-pedia.org/api/getReviewsByPlaceId?placeId=88196
114 Avenue Simon Bolivar,88264,48.879536,2.374565,Paris,Église Saint-Georges de la Villette,Church,http://tour-pedia.org/api/getPlaceDetails?id=88264,http://tour-pedia.org/api/getReviewsByPlaceId?placeId=88264
4 Place Saint-Blaise,88268,48.860505,2.403998,Paris,Église Saint-Germain-de-Charonne,Church,http://tour-pedia.org/api/getPlaceDetails?id=88268,http://tour-pedia.org/api/getReviewsByPlaceId?placeId=88268
25 rue blanche,88296,48.879251,2.330904,Paris,Eglise Evangelique Allemande,Church,http://tour-pedia.org/api/getPlaceDetails?id=88296,http://tour-pedia.org/api/getReviewsByPlaceId?placeId=88296
,88328,48.86748652808,2.3076269304115,Paris,Eglise Du Sacré Coeur Colombes,Church,http://tour-pedia.org/api/getPlaceDetails?id=88328,http://tour-pedia.org/api/getReviewsByPlaceId?placeId=88328
13 passage lagny,88353,48.849978,2.408633,Paris,Sainte Rita,Church,http://tour-pedia.org/api/getPlaceDetails?id=88353,http://tour-pedia.org/api/getReviewsByPlaceId?placeId=88353
91 rue Lecourbe,88377,48.842804029608,2.3044229125015,Paris,Eglise Orthodoxe de Saint-Seraphin-de-Sarov,Church,http://tour-pedia.org/api/getPlaceDetails?id=88377,http://tour-pedia.org/api/getReviewsByPlaceId?placeId=88377
,88415,48.829193,2.326719,Paris,Centre Paroissial,Church,http://tour-pedia.org/api/getPlaceDetails?id=88415,http://tour-pedia.org/api/getReviewsByPlaceId?placeId=88415
81 rue de Haxo,88435,48.874194,2.402905,Paris,Église Notre-Dame-des-Otages,Church,http://tour-pedia.org/api/getPlaceDetails?id=88435,http://tour-pedia.org/api/getReviewsByPlaceId?placeId=88435
49 Rue de la Roquette,88452,48.855451888325,2.3745103209512,Paris,Notre-Dame D'Espérance,Church,http://tour-pedia.org/api/getPlaceDetails?id=88452,http://tour-pedia.org/api/getReviewsByPlaceId?placeId=88452
Rue de la Roquette,88559,48.857585223012,2.3517752893708,Paris,Église Notre Dame de l'Espérance,Church,http://tour-pedia.org/api/getPlaceDetails?id=88559,http://tour-pedia.org/api/getReviewsByPlaceId?placeId=88559
90 Rue de l'Assomption,88648,48.855629,2.266488,Paris,Église Notre-Dame-de-l'Assomption de Passy,Church,http://tour-pedia.org/api/getPlaceDetails?id=88648,http://tour-pedia.org/api/getReviewsByPlaceId?placeId=88648
Place Jeanne d'Arc,88669,48.829897,2.36823,Paris,Église Notre-Dame de la Gare,Church,http://tour-pedia.org/api/getPlaceDetails?id=88669,http://tour-pedia.org/api/getReviewsByPlaceId?placeId=88669
5 Rue des Pyrénées,88725,48.848691,2.406113,Paris,Église Saint-Gabriel,Church,http://tour-pedia.org/api/getPlaceDetails?id=88725,http://tour-pedia.org/api/getReviewsByPlaceId?placeId=88725
,88747,48.87782299901,2.3534291982651,Paris,Eglise Presbyterienne Coréenne De Mok-yang,Church,http://tour-pedia.org/api/getPlaceDetails?id=88747,http://tour-pedia.org/api/getReviewsByPlaceId?placeId=88747
,88791,48.853080675883,2.346698484846,Paris,ノートルダム寺院,Church,http://tour-pedia.org/api/getPlaceDetails?id=88791,http://tour-pedia.org/api/getReviewsByPlaceId?placeId=88791
,88799,48.821142672318,2.3632689664681,Paris,Paroisse Saint Hippolyte,Church,http://tour-pedia.org/api/getPlaceDetails?id=88799,http://tour-pedia.org/api/getReviewsByPlaceId?placeId=88799
64 Boulevard Magenta,88877,48.874877,2.358043,Paris,Église Saint-Laurent,Church,http://tour-pedia.org/api/getPlaceDetails?id=88877,http://tour-pedia.org/api/getReviewsByPlaceId?placeId=88877
163 Bis Rue Belliard,88991,48.895893739282,2.3313216963496,Paris,Le Tabernacle,Church,http://tour-pedia.org/api/getPlaceDetails?id=88991,http://tour-pedia.org/api/getReviewsByPlaceId?placeId=88991
,89001,48.856040392787,2.3126891980314,Paris,Église Des Soldats,Church,http://tour-pedia.org/api/getPlaceDetails?id=89001,http://tour-pedia.org/api/getReviewsByPlaceId?placeId=89001
22 rue Cortambert,89391,48.862008,2.279805,Paris,Chapelle Notre-Dame du Saint-Sacrement,Church,http://tour-pedia.org/api/getPlaceDetails?id=89391,http://tour-pedia.org/api/getReviewsByPlaceId?placeId=89391
8 rue des Ternes,89409,48.881255625249,2.2886753082275,Paris,Église Protestante Évangélique des Ternes,Church,http://tour-pedia.org/api/getPlaceDetails?id=89409,http://tour-pedia.org/api/getReviewsByPlaceId?placeId=89409
,89550,48.841112,2.339308,Paris,Church Baptist,Church,http://tour-pedia.org/api/getPlaceDetails?id=89550,http://tour-pedia.org/api/getReviewsByPlaceId?placeId=89550
111 Avenue Paul Vaillant Couturier,89586,48.816957501401,2.3358822235932,Paris,Eglise du Sacré-Coeur de Gentilly,Church,http://tour-pedia.org/api/getPlaceDetails?id=89586,http://tour-pedia.org/api/getReviewsByPlaceId?placeId=89586
22 Rue du Lieutenant Chauré,90119,48.86775,2.406472,Paris,Église du Cœur-Eucharistique-de-Jésus,Church,http://tour-pedia.org/api/getPlaceDetails?id=90119,http://tour-pedia.org/api/getReviewsByPlaceId?placeId=90119
"26, Rue du Maréchal Foch",90409,48.853392691661,2.345666885376,Paris,CCF Ermont (Congregation Chretienne en France),Church,http://tour-pedia.org/api/getPlaceDetails?id=90409,http://tour-pedia.org/api/getReviewsByPlaceId?placeId=90409
,90428,48.888727000832,2.3793100961624,Paris,St Jacques,Church,http://tour-pedia.org/api/getPlaceDetails?id=90428,http://tour-pedia.org/api/getReviewsByPlaceId?placeId=90428
"17, Rue Lord Byron",90599,48.873473922625,2.2993716214871,Paris,Eglise Danoise (Danske Kirke),Church,http://tour-pedia.org/api/getPlaceDetails?id=90599,http://tour-pedia.org/api/getReviewsByPlaceId?placeId=90599
20 Rue des Tanneries,90687,48.834001441292,2.3461028277182,Paris,Couvent Saint Jacques,Church,http://tour-pedia.org/api/getPlaceDetails?id=90687,http://tour-pedia.org/api/getReviewsByPlaceId?placeId=90687
,90715,48.868490648158,2.2735970371026,Paris,"Deuxième Eglise De La Science Chrétienne , Paris",Church,http://tour-pedia.org/api/getPlaceDetails?id=90715,http://tour-pedia.org/api/getReviewsByPlaceId?placeId=90715
,90754,48.825301472125,2.383802389531,Paris,Aerys,Church,http://tour-pedia.org/api/getPlaceDetails?id=90754,http://tour-pedia.org/api/getReviewsByPlaceId?placeId=90754
16 rue Taclet,90831,48.870859517686,2.3993865643514,Paris,Notre-Dame de Lourdes,Church,http://tour-pedia.org/api/getPlaceDetails?id=90831,http://tour-pedia.org/api/getReviewsByPlaceId?placeId=90831
Edgar Quinet,90871,48.863369597411,2.3525844629864,Paris,Hillsong Paris,Church,http://tour-pedia.org/api/getPlaceDetails?id=90871,http://tour-pedia.org/api/getReviewsByPlaceId?placeId=90871
23 Avenue de Friedland,90895,48.874658798594,2.3018202647855,Paris,Eglise Du Saint Sacrement,Church,http://tour-pedia.org/api/getPlaceDetails?id=90895,http://tour-pedia.org/api/getReviewsByPlaceId?placeId=90895
104 rue du Docteur Bauer,90919,48.880399452602,2.3874023193921,Paris,Église du Sacré Cœur,Church,http://tour-pedia.org/api/getPlaceDetails?id=90919,http://tour-pedia.org/api/getReviewsByPlaceId?placeId=90919
141 Rue Mouffetard,90923,48.839495808998,2.3501394371924,Paris,Saint Médard,Church,http://tour-pedia.org/api/getPlaceDetails?id=90923,http://tour-pedia.org/api/getReviewsByPlaceId?placeId=90923
"39, rue François-Gérard",90936,48.848506616745,2.2709324352295,Paris,Eglise Catholique Russe de la Très-Sainte Trinité,Church,http://tour-pedia.org/api/getPlaceDetails?id=90936,http://tour-pedia.org/api/getReviewsByPlaceId?placeId=90936
12 Rue De La Grange Aux Belles,90938,48.881535,2.370005,Paris,Chapelle de l'hôpital St. Louis,Church,http://tour-pedia.org/api/getPlaceDetails?id=90938,http://tour-pedia.org/api/getReviewsByPlaceId?placeId=90938
,91194,48.853382206459,2.279808392001,Paris,Notre Dame De Grace De Passy,Church,http://tour-pedia.org/api/getPlaceDetails?id=91194,http://tour-pedia.org/api/getReviewsByPlaceId?placeId=91194
7 Passage du Télégraphe,91359,48.874165111801,2.3986974345963,Paris,Église Évangélique de Télégraphe,Church,http://tour-pedia.org/api/getPlaceDetails?id=91359,http://tour-pedia.org/api/getReviewsByPlaceId?placeId=91359
"3, rue de La Source",91366,48.851028976402,2.2689893077792,Paris,Abbaye Sainte-Marie de La Source,Church,http://tour-pedia.org/api/getPlaceDetails?id=91366,http://tour-pedia.org/api/getReviewsByPlaceId?placeId=91366
8 rue de Palestine,91376,48.861606,2.405887,Paris,Chapelle Sainte Bernadette,Church,http://tour-pedia.org/api/getPlaceDetails?id=91376,http://tour-pedia.org/api/getReviewsByPlaceId?placeId=91376
,91393,48.880101,2.391361,Paris,Paroisse Saint François d'Assise,Church,http://tour-pedia.org/api/getPlaceDetails?id=91393,http://tour-pedia.org/api/getReviewsByPlaceId?placeId=91393
53 Rue Raymond Losserand,91580,48.834565,2.319782,Paris,Église Impulsion,Church,http://tour-pedia.org/api/getPlaceDetails?id=91580,http://tour-pedia.org/api/getReviewsByPlaceId?placeId=91580
15 Rue de l'École de Médecine,91743,48.850900645364,2.3415684700012,Paris,Couvent des Cordeliers,Church,http://tour-pedia.org/api/getPlaceDetails?id=91743,http://tour-pedia.org/api/getReviewsByPlaceId?placeId=91743
69 rue Legendre,91770,48.887010207321,2.318548010038,Paris,Eglise de Scientologie - Celebrity Center,Church,http://tour-pedia.org/api/getPlaceDetails?id=91770,http://tour-pedia.org/api/getReviewsByPlaceId?placeId=91770
5 Rue Daunou,83384,48.869245695676,2.332170009613,Paris,Harry's New York Bar,Cocktail Bar,http://tour-pedia.org/api/getPlaceDetails?id=83384,http://tour-pedia.org/api/getReviewsByPlaceId?placeId=83384
98 Quai de la Rapée,83761,48.846064450919,2.3675107955933,Paris,Salons Vianey,Cocktail Bar,http://tour-pedia.org/api/getPlaceDetails?id=83761,http://tour-pedia.org/api/getReviewsByPlaceId?placeId=83761
37 Rue Saint-Sauveur,83926,48.866100584708,2.3483388038034,Paris,Experimental Cocktail Club,Cocktail Bar,http://tour-pedia.org/api/getPlaceDetails?id=83926,http://tour-pedia.org/api/getReviewsByPlaceId?placeId=83926
16 rue des Bernardins,83973,48.850394342182,2.3507435796721,Paris,Curio Parlor,Cocktail Bar,http://tour-pedia.org/api/getPlaceDetails?id=83973,http://tour-pedia.org/api/getReviewsByPlaceId?placeId=83973
23 rue Mazarine,83997,48.854805823576,2.3379042779919,Paris,Prescription Cocktail Club,Cocktail Bar,http://tour-pedia.org/api/getPlaceDetails?id=83997,http://tour-pedia.org/api/getReviewsByPlaceId?placeId=83997
Rue Francoeur,84127,48.889758,2.342694,Paris,Café Francoeur,Cocktail Bar,http://tour-pedia.org/api/getPlaceDetails?id=84127,http://tour-pedia.org/api/getReviewsByPlaceId?placeId=84127
32 Avenue des Champs-Élysees,84152,48.869780458602,2.3081312752909,Paris,Unisex,Cocktail Bar,http://tour-pedia.org/api/getPlaceDetails?id=84152,http://tour-pedia.org/api/getReviewsByPlaceId?placeId=84152
4 Boulevard Malesherbes,84254,48.870544205445,2.3234367370605,Paris,Le Forvm,Cocktail Bar,http://tour-pedia.org/api/getPlaceDetails?id=84254,http://tour-pedia.org/api/getReviewsByPlaceId?placeId=84254
68 Quai de la Loire,84846,48.886625857532,2.3769920049269,Paris,BarOurcq,Cocktail Bar,http://tour-pedia.org/api/getPlaceDetails?id=84846,http://tour-pedia.org/api/getReviewsByPlaceId?placeId=84846
41 Quai de l'Oise,87015,48.892422,2.385491,Paris,La Plage,Cocktail Bar,http://tour-pedia.org/api/getPlaceDetails?id=87015,http://tour-pedia.org/api/getReviewsByPlaceId?placeId=87015
28 rue Keller,87282,48.855312824026,2.3755359649658,Paris,Bacardi Mojito Lab,Cocktail Bar,http://tour-pedia.org/api/getPlaceDetails?id=87282,http://tour-pedia.org/api/getReviewsByPlaceId?placeId=87282
12 rue Joseph de Maistre,87989,48.88652665502,2.3332075576933,Paris,The 7th Bar,Cocktail Bar,http://tour-pedia.org/api/getPlaceDetails?id=87989,http://tour-pedia.org/api/getReviewsByPlaceId?placeId=87989
257 rue de Vaugirard,88122,48.839968,2.303125,Paris,Novotel Lounge Bar View,Cocktail Bar,http://tour-pedia.org/api/getPlaceDetails?id=88122,http://tour-pedia.org/api/getReviewsByPlaceId?placeId=88122
299 rue Lecourbe,88553,48.837817132628,2.2870820760727,Paris,Heure Sup,Cocktail Bar,http://tour-pedia.org/api/getPlaceDetails?id=88553,http://tour-pedia.org/api/getReviewsByPlaceId?placeId=88553
6 rue André Antoine,89236,48.88284991787,2.3374319940528,Paris,Le Kremlin,Cocktail Bar,http://tour-pedia.org/api/getPlaceDetails?id=89236,http://tour-pedia.org/api/getReviewsByPlaceId?placeId=89236
4 rue Meyerbeer,89701,48.871923042306,2.3336069675139,Paris,W Lounge,Cocktail Bar,http://tour-pedia.org/api/getPlaceDetails?id=89701,http://tour-pedia.org/api/getReviewsByPlaceId?placeId=89701
82 Rue de Charenton,89938,48.848825022044,2.3753106594086,Paris,Le Calbar,Cocktail Bar,http://tour-pedia.org/api/getPlaceDetails?id=89938,http://tour-pedia.org/api/getReviewsByPlaceId?placeId=89938
7 rue Frochot,90192,48.881549240386,2.3374094560306,Paris,Glass,Cocktail Bar,http://tour-pedia.org/api/getPlaceDetails?id=90192,http://tour-pedia.org/api/getReviewsByPlaceId?placeId=90192
20 rue Beautreillis,90304,48.853318945721,2.3640343859675,Paris,Sherry Butt,Cocktail Bar,http://tour-pedia.org/api/getPlaceDetails?id=90304,http://tour-pedia.org/api/getReviewsByPlaceId?placeId=90304
60 rue Charlot,90453,48.863675371867,2.3635738841906,Paris,Little Red Door,Cocktail Bar,http://tour-pedia.org/api/getPlaceDetails?id=90453,http://tour-pedia.org/api/getReviewsByPlaceId?placeId=90453
32 Rue Cler,90471,48.857035146019,2.3063305654391,Paris,L'Éclair,Cocktail Bar,http://tour-pedia.org/api/getPlaceDetails?id=90471,http://tour-pedia.org/api/getReviewsByPlaceId?placeId=90471
,90617,48.867700724044,2.2770114233793,Paris,Defance,Cocktail Bar,http://tour-pedia.org/api/getPlaceDetails?id=90617,http://tour-pedia.org/api/getReviewsByPlaceId?placeId=90617
8 Rue Frochot,90737,48.881528125147,2.337308329879,Paris,Dirty Dick,Cocktail Bar,http://tour-pedia.org/api/getPlaceDetails?id=90737,http://tour-pedia.org/api/getReviewsByPlaceId?placeId=90737
14 Rue Crespin du Gast,91121,48.865381748157,2.3817672477881,Paris,Le Perchoir,Cocktail Bar,http://tour-pedia.org/api/getPlaceDetails?id=91121,http://tour-pedia.org/api/getReviewsByPlaceId?placeId=91121
,91339,48.835623783854,2.3485331387663,Paris,Jolis Mômes,Cocktail Bar,http://tour-pedia.org/api/getPlaceDetails?id=91339,http://tour-pedia.org/api/getReviewsByPlaceId?placeId=91339
,91386,48.892264130124,2.3151292471183,Paris,Hotel Ibis Bar,Cocktail Bar,http://tour-pedia.org/api/getPlaceDetails?id=91386,http://tour-pedia.org/api/getReviewsByPlaceId?placeId=91386
