address,name,id,lat,lng,location,subCategory,details,reviews
via dei promontori 398,Regina Di Saba,5125,41.734912,12.298853,Rome,African Restaurant,http://tour-pedia.org/api/getPlaceDetails?id=5125,http://tour-pedia.org/api/getReviewsByPlaceId?placeId=5125
"Via Capo Delle Armi, 26-28",Ha-Hu,21808,41.740623031212,12.286356058215,Rome,African Restaurant,http://tour-pedia.org/api/getPlaceDetails?id=21808,http://tour-pedia.org/api/getReviewsByPlaceId?placeId=21808
Via Capo Delle Armi,Selam,15924,41.740624,12.286186,Rome,African Restaurant,http://tour-pedia.org/api/getPlaceDetails?id=15924,http://tour-pedia.org/api/getReviewsByPlaceId?placeId=15924
,Buonanotte a tutti..belli e brutti...,12282,41.861600110381,12.412377341646,Rome,African Restaurant,http://tour-pedia.org/api/getPlaceDetails?id=12282,http://tour-pedia.org/api/getReviewsByPlaceId?placeId=12282
,Apparecchio la tavola,11323,41.863431715954,12.431696822535,Rome,African Restaurant,http://tour-pedia.org/api/getPlaceDetails?id=11323,http://tour-pedia.org/api/getReviewsByPlaceId?placeId=11323
Viale della Stazione Prenestina 55,Enqutatash,4590,41.894534820383,12.546405269823,Rome,African Restaurant,http://tour-pedia.org/api/getPlaceDetails?id=4590,http://tour-pedia.org/api/getReviewsByPlaceId?placeId=4590
"Viale Ippocrate, 43",Sahara,1147,41.908518922668,12.520091458683,Rome,African Restaurant,http://tour-pedia.org/api/getPlaceDetails?id=1147,http://tour-pedia.org/api/getReviewsByPlaceId?placeId=1147
Via dei Monti di Pietralata 53,Zighini,5740,41.91103105149,12.536051918656,Rome,African Restaurant,http://tour-pedia.org/api/getPlaceDetails?id=5740,http://tour-pedia.org/api/getReviewsByPlaceId?placeId=5740
"Via dei Monti di Pietralata, 43",Zighini,11485,41.916713093328,12.549016164886,Rome,African Restaurant,http://tour-pedia.org/api/getPlaceDetails?id=11485,http://tour-pedia.org/api/getReviewsByPlaceId?placeId=11485
,subway,4905,41.810991,12.458812,Rome,American Restaurant,http://tour-pedia.org/api/getPlaceDetails?id=4905,http://tour-pedia.org/api/getReviewsByPlaceId?placeId=4905
Via Aurelia 1051,Big Bang,1895,41.883455,12.380046844482,Rome,American Restaurant,http://tour-pedia.org/api/getPlaceDetails?id=1895,http://tour-pedia.org/api/getReviewsByPlaceId?placeId=1895
"Via Fratelli Bonnet, 21","Homebaked ""Grandma's Kitchen""",25150,41.885257,12.460455,Rome,American Restaurant,http://tour-pedia.org/api/getPlaceDetails?id=25150,http://tour-pedia.org/api/getReviewsByPlaceId?placeId=25150
,Ristorante,12140,41.942161,12.371248,Rome,American Restaurant,http://tour-pedia.org/api/getPlaceDetails?id=12140,http://tour-pedia.org/api/getReviewsByPlaceId?placeId=12140
,Kebab e Pizza,11560,41.857496,12.503462,Rome,Arepa Restaurant,http://tour-pedia.org/api/getPlaceDetails?id=11560,http://tour-pedia.org/api/getReviewsByPlaceId?placeId=11560
,Il Pascià,12534,41.862694143318,12.684993123541,Rome,Arepa Restaurant,http://tour-pedia.org/api/getPlaceDetails?id=12534,http://tour-pedia.org/api/getReviewsByPlaceId?placeId=12534
,Ristorante 2 Archi,12214,41.867108344059,12.627258406383,Rome,Arepa Restaurant,http://tour-pedia.org/api/getPlaceDetails?id=12214,http://tour-pedia.org/api/getReviewsByPlaceId?placeId=12214
,Aladdin,11024,41.880119464785,12.572808296702,Rome,Arepa Restaurant,http://tour-pedia.org/api/getPlaceDetails?id=11024,http://tour-pedia.org/api/getReviewsByPlaceId?placeId=11024
,ristorante,22284,41.865364095105,12.584476418796,Rome,Argentinian Restaurant,http://tour-pedia.org/api/getPlaceDetails?id=22284,http://tour-pedia.org/api/getReviewsByPlaceId?placeId=22284
Via Mattia Battistini 606,Gauchos Pizza & Grill,833,41.92052885433,12.397191524506,Rome,Argentinian Restaurant,http://tour-pedia.org/api/getPlaceDetails?id=833,http://tour-pedia.org/api/getReviewsByPlaceId?placeId=833
via Mattia Battistini,Gauchos,21389,41.922770673464,12.421779226137,Rome,Argentinian Restaurant,http://tour-pedia.org/api/getPlaceDetails?id=21389,http://tour-pedia.org/api/getReviewsByPlaceId?placeId=21389
"Via di Saponara, 188",Xin Yi,4526,41.778177,12.356236,Rome,Asian Restaurant,http://tour-pedia.org/api/getPlaceDetails?id=4526,http://tour-pedia.org/api/getReviewsByPlaceId?placeId=4526
Centro Commerciale Euroma 2,W.O.K.,9793,41.816658436332,12.458733956039,Rome,Asian Restaurant,http://tour-pedia.org/api/getPlaceDetails?id=9793,http://tour-pedia.org/api/getReviewsByPlaceId?placeId=9793
"Via Elio Vittorini, 63, 00144 Roma",Specialità Di Hong Kong,12124,41.820433612713,12.464130958127,Rome,Asian Restaurant,http://tour-pedia.org/api/getPlaceDetails?id=12124,http://tour-pedia.org/api/getReviewsByPlaceId?placeId=12124
,Shan hai,18133,41.82935333252,12.557620048523,Rome,Asian Restaurant,http://tour-pedia.org/api/getPlaceDetails?id=18133,http://tour-pedia.org/api/getReviewsByPlaceId?placeId=18133
,buddha restaurant & Wok Laghetto Eur,13133,41.830187353013,12.465474649935,Rome,Asian Restaurant,http://tour-pedia.org/api/getPlaceDetails?id=13133,http://tour-pedia.org/api/getReviewsByPlaceId?placeId=13133
"Via Tuscolana,1259",Fashion Wok Restaurant,8482,41.835993607339,12.603690479661,Rome,Asian Restaurant,http://tour-pedia.org/api/getPlaceDetails?id=8482,http://tour-pedia.org/api/getReviewsByPlaceId?placeId=8482
Via Fontanellato 55,Ristorante Cinese Hong Yang,18371,41.851474156565,12.485116756123,Rome,Asian Restaurant,http://tour-pedia.org/api/getPlaceDetails?id=18371,http://tour-pedia.org/api/getReviewsByPlaceId?placeId=18371
"Viale Guglielmo Marconi, 586",Asian Inn,14021,41.854706803391,12.471912503242,Rome,Asian Restaurant,http://tour-pedia.org/api/getPlaceDetails?id=14021,http://tour-pedia.org/api/getReviewsByPlaceId?placeId=14021
"Largo Leonardo da Vinci, 1a",Casa Imperiale,4714,41.856930738411,12.480749062179,Rome,Asian Restaurant,http://tour-pedia.org/api/getPlaceDetails?id=4714,http://tour-pedia.org/api/getReviewsByPlaceId?placeId=4714
,Risto Wok Fangshou,24761,41.861816847824,12.649838550777,Rome,Asian Restaurant,http://tour-pedia.org/api/getPlaceDetails?id=24761,http://tour-pedia.org/api/getReviewsByPlaceId?placeId=24761
"Viale dei Consoli, 147-163",WOK Cinque Stelle,24236,41.864163758154,12.551912069321,Rome,Asian Restaurant,http://tour-pedia.org/api/getPlaceDetails?id=24236,http://tour-pedia.org/api/getReviewsByPlaceId?placeId=24236
Via Silicella 26,Lucky Wok,3614,41.864635325752,12.598286902681,Rome,Asian Restaurant,http://tour-pedia.org/api/getPlaceDetails?id=3614,http://tour-pedia.org/api/getReviewsByPlaceId?placeId=3614
,Green Tea,9729,41.867982,12.439123,Rome,Asian Restaurant,http://tour-pedia.org/api/getPlaceDetails?id=9729,http://tour-pedia.org/api/getReviewsByPlaceId?placeId=9729
,Wok,19400,41.878467559814,12.418608665466,Rome,Asian Restaurant,http://tour-pedia.org/api/getPlaceDetails?id=19400,http://tour-pedia.org/api/getReviewsByPlaceId?placeId=19400
Via Tiburtina 201,king sushi wok,23467,41.878810882568,12.570735931396,Rome,Asian Restaurant,http://tour-pedia.org/api/getPlaceDetails?id=23467,http://tour-pedia.org/api/getReviewsByPlaceId?placeId=23467
,Jing Yuan Ristorante,6659,41.895414841993,12.447140226282,Rome,Asian Restaurant,http://tour-pedia.org/api/getPlaceDetails?id=6659,http://tour-pedia.org/api/getReviewsByPlaceId?placeId=6659
via Gandino,il padiglione delle cicogne,16664,41.90191294929,12.437215680646,Rome,Asian Restaurant,http://tour-pedia.org/api/getPlaceDetails?id=16664,http://tour-pedia.org/api/getReviewsByPlaceId?placeId=16664
"Via Tiburtina, 717",Fuji,4932,41.911538518698,12.550954764845,Rome,Asian Restaurant,http://tour-pedia.org/api/getPlaceDetails?id=4932,http://tour-pedia.org/api/getReviewsByPlaceId?placeId=4932
Via Ettore Franceschini 49,Sushi Cin Cin,18129,41.912088173813,12.575627144031,Rome,Asian Restaurant,http://tour-pedia.org/api/getPlaceDetails?id=18129,http://tour-pedia.org/api/getReviewsByPlaceId?placeId=18129
,1688 ristorante a buffef,14892,41.912689004928,12.57033695847,Rome,Asian Restaurant,http://tour-pedia.org/api/getPlaceDetails?id=14892,http://tour-pedia.org/api/getReviewsByPlaceId?placeId=14892
"Via Tiburtina, 834","Wen Ming Jai Yuan ""CIVILTÀ della CASA""",22085,41.915657,12.561754,Rome,Asian Restaurant,http://tour-pedia.org/api/getPlaceDetails?id=22085,http://tour-pedia.org/api/getReviewsByPlaceId?placeId=22085
,Ristorante Cinese Emmanuele,17867,41.91568606804,12.418566827679,Rome,Asian Restaurant,http://tour-pedia.org/api/getPlaceDetails?id=17867,http://tour-pedia.org/api/getReviewsByPlaceId?placeId=17867
,New Tokio,10772,41.917882797423,12.538724203952,Rome,Asian Restaurant,http://tour-pedia.org/api/getPlaceDetails?id=10772,http://tour-pedia.org/api/getReviewsByPlaceId?placeId=10772
"Piazza Capri, 00141 Roma",La Grande Capitale,12364,41.946093133049,12.522988309349,Rome,Asian Restaurant,http://tour-pedia.org/api/getPlaceDetails?id=12364,http://tour-pedia.org/api/getReviewsByPlaceId?placeId=12364
Via Nomentana Km 10.500,Wok And Roll,22305,41.949576148957,12.570342562351,Rome,Asian Restaurant,http://tour-pedia.org/api/getPlaceDetails?id=22305,http://tour-pedia.org/api/getReviewsByPlaceId?placeId=22305
"Via Cassia, 917",Thien Kim Ristorante Vietnamita,4525,41.971174433508,12.433694998735,Rome,Asian Restaurant,http://tour-pedia.org/api/getPlaceDetails?id=4525,http://tour-pedia.org/api/getReviewsByPlaceId?placeId=4525
Centro Commerciale Porta di Roma,W.O.K.,1859,41.971710071963,12.540320882106,Rome,Asian Restaurant,http://tour-pedia.org/api/getPlaceDetails?id=1859,http://tour-pedia.org/api/getReviewsByPlaceId?placeId=1859
72 Ma May,New Day Restaurant,1797,41.975327,12.512301,Rome,Asian Restaurant,http://tour-pedia.org/api/getPlaceDetails?id=1797,http://tour-pedia.org/api/getReviewsByPlaceId?placeId=1797
,"restaurant thai, jap and chinese",19495,42.020847320557,12.375503540039,Rome,Asian Restaurant,http://tour-pedia.org/api/getPlaceDetails?id=19495,http://tour-pedia.org/api/getReviewsByPlaceId?placeId=19495
"Viale Guglielmo Marconi, 00146 Roma",Bar Marconi,12196,41.845190958089,12.472075766474,Rome,Bagel Shop,http://tour-pedia.org/api/getPlaceDetails?id=12196,http://tour-pedia.org/api/getReviewsByPlaceId?placeId=12196
"Piazza Monte Grappa, 1",Haus Garten,23732,41.918114247043,12.469332253375,Rome,Bagel Shop,http://tour-pedia.org/api/getPlaceDetails?id=23732,http://tour-pedia.org/api/getReviewsByPlaceId?placeId=23732
Piazza Delle Fiamme Gialle 20,Il Pane Di Ostia,10709,41.733395225519,12.291571503392,Rome,Bakery,http://tour-pedia.org/api/getPlaceDetails?id=10709,http://tour-pedia.org/api/getReviewsByPlaceId?placeId=10709
"Via Diego Simonetti, 64",La Reggia Del Pane,3207,41.737101418193,12.289061574846,Rome,Bakery,http://tour-pedia.org/api/getPlaceDetails?id=3207,http://tour-pedia.org/api/getReviewsByPlaceId?placeId=3207
"Via Angelo Olivieri, 140",Al Pachino Panetteria,11881,41.737107431685,12.291598320007,Rome,Bakery,http://tour-pedia.org/api/getPlaceDetails?id=11881,http://tour-pedia.org/api/getReviewsByPlaceId?placeId=11881
"Via Piola Caselli, 137",Magie di... pane e pizza,11596,41.738152197655,12.284962534904,Rome,Bakery,http://tour-pedia.org/api/getPlaceDetails?id=11596,http://tour-pedia.org/api/getReviewsByPlaceId?placeId=11596
Via Tagaste,Pizza Panzieri,16398,41.738155,12.271122,Rome,Bakery,http://tour-pedia.org/api/getPlaceDetails?id=16398,http://tour-pedia.org/api/getReviewsByPlaceId?placeId=16398
Via Raffaele Della Cosa,Forno Della Bianca,18004,41.73817394853,12.283980400516,Rome,Bakery,http://tour-pedia.org/api/getPlaceDetails?id=18004,http://tour-pedia.org/api/getReviewsByPlaceId?placeId=18004
Via delle Canarie,Il mio fornaio Giacinti,20543,41.739412306985,12.281185574032,Rome,Bakery,http://tour-pedia.org/api/getPlaceDetails?id=20543,http://tour-pedia.org/api/getReviewsByPlaceId?placeId=20543
,Il Mio Forno,17849,41.740836,12.286411,Rome,Bakery,http://tour-pedia.org/api/getPlaceDetails?id=17849,http://tour-pedia.org/api/getReviewsByPlaceId?placeId=17849
Centro Commerciale Le Terrazze,La Bottega del Fornaio,16237,41.751324692511,12.354416367018,Rome,Bakery,http://tour-pedia.org/api/getPlaceDetails?id=16237,http://tour-pedia.org/api/getReviewsByPlaceId?placeId=16237
,La Bottega Del Pane,23196,41.762861,12.371803,Rome,Bakery,http://tour-pedia.org/api/getPlaceDetails?id=23196,http://tour-pedia.org/api/getReviewsByPlaceId?placeId=23196
Via fabio gori,Panifici Tosoni,5301,41.763991922819,12.301539105142,Rome,Bakery,http://tour-pedia.org/api/getPlaceDetails?id=5301,http://tour-pedia.org/api/getReviewsByPlaceId?placeId=5301
Via Di Acilia 13,La Boutique del fornaio,15326,41.775332140773,12.370744243271,Rome,Bakery,http://tour-pedia.org/api/getPlaceDetails?id=15326,http://tour-pedia.org/api/getReviewsByPlaceId?placeId=15326
"Via di Saponara, 203",Dal Mio Fornaio,3680,41.777884447783,12.354690436476,Rome,Bakery,http://tour-pedia.org/api/getPlaceDetails?id=3680,http://tour-pedia.org/api/getReviewsByPlaceId?placeId=3680
,La Bottega Del Fornaio,19199,41.778311,12.350402,Rome,Bakery,http://tour-pedia.org/api/getPlaceDetails?id=19199,http://tour-pedia.org/api/getReviewsByPlaceId?placeId=19199
"via Matteo Ripa, 35",Fantasia di Pane e di Dolci,4844,41.78360064844,12.360015347333,Rome,Bakery,http://tour-pedia.org/api/getPlaceDetails?id=4844,http://tour-pedia.org/api/getReviewsByPlaceId?placeId=4844
,Il Forno di Signori,7630,41.786086169192,12.346692358228,Rome,Bakery,http://tour-pedia.org/api/getPlaceDetails?id=7630,http://tour-pedia.org/api/getReviewsByPlaceId?placeId=7630
De lullo,Nonna Papera,3600,41.786118260311,12.394773298118,Rome,Bakery,http://tour-pedia.org/api/getPlaceDetails?id=3600,http://tour-pedia.org/api/getReviewsByPlaceId?placeId=3600
,Forno,15243,41.787668201357,12.433073713283,Rome,Bakery,http://tour-pedia.org/api/getPlaceDetails?id=15243,http://tour-pedia.org/api/getReviewsByPlaceId?placeId=15243
Via Beata Vergine del Carmelo,Specialità Salvucci,11366,41.806812677125,12.438435910711,Rome,Bakery,http://tour-pedia.org/api/getPlaceDetails?id=11366,http://tour-pedia.org/api/getReviewsByPlaceId?placeId=11366
"Via Francesco Sapori, 29",Il Tuo Fornaio,9406,41.810984850016,12.484427993269,Rome,Bakery,http://tour-pedia.org/api/getPlaceDetails?id=9406,http://tour-pedia.org/api/getReviewsByPlaceId?placeId=9406
"Via Portuense, 1499e",Il paradiso del pane,8186,41.817017197609,12.343633174896,Rome,Bakery,http://tour-pedia.org/api/getPlaceDetails?id=8186,http://tour-pedia.org/api/getReviewsByPlaceId?placeId=8186
,Nonna Iole Forno,10966,41.817936,12.627092,Rome,Bakery,http://tour-pedia.org/api/getPlaceDetails?id=10966,http://tour-pedia.org/api/getReviewsByPlaceId?placeId=10966
Via Settemetri 66/h,Dolce & Salato,10783,41.818122852541,12.609430655435,Rome,Bakery,http://tour-pedia.org/api/getPlaceDetails?id=10783,http://tour-pedia.org/api/getReviewsByPlaceId?placeId=10783
Via Laurentina 579,L'Artigiano del Pane,4121,41.823289,12.479352,Rome,Bakery,http://tour-pedia.org/api/getPlaceDetails?id=4121,http://tour-pedia.org/api/getReviewsByPlaceId?placeId=4121
Via Lucrezia Romana,Bisco Piu,19295,41.826760731178,12.583753431673,Rome,Bakery,http://tour-pedia.org/api/getPlaceDetails?id=19295,http://tour-pedia.org/api/getReviewsByPlaceId?placeId=19295
largo filippo rosa 7,Supermercato Elite,1160,41.82832026767,12.459960015967,Rome,Bakery,http://tour-pedia.org/api/getPlaceDetails?id=1160,http://tour-pedia.org/api/getReviewsByPlaceId?placeId=1160
Via campo farnia 138,Panificio Berardi,4977,41.830666,12.576887,Rome,Bakery,http://tour-pedia.org/api/getPlaceDetails?id=4977,http://tour-pedia.org/api/getReviewsByPlaceId?placeId=4977
,Il Fornaio,11835,41.83106150949,12.620547449855,Rome,Bakery,http://tour-pedia.org/api/getPlaceDetails?id=11835,http://tour-pedia.org/api/getReviewsByPlaceId?placeId=11835
Via enzo benedetto,Pasticceria Forno 24,9802,41.831837,12.58162,Rome,Bakery,http://tour-pedia.org/api/getPlaceDetails?id=9802,http://tour-pedia.org/api/getReviewsByPlaceId?placeId=9802
"Largo Apollinaire, 7",Il Gianfornaio,12830,41.83247715007,12.463011227084,Rome,Bakery,http://tour-pedia.org/api/getPlaceDetails?id=12830,http://tour-pedia.org/api/getReviewsByPlaceId?placeId=12830
,Il Salottino,21487,41.834554,12.431052,Rome,Bakery,http://tour-pedia.org/api/getPlaceDetails?id=21487,http://tour-pedia.org/api/getReviewsByPlaceId?placeId=21487
,pizza e kebab,15547,41.834558590961,12.504717442113,Rome,Bakery,http://tour-pedia.org/api/getPlaceDetails?id=15547,http://tour-pedia.org/api/getReviewsByPlaceId?placeId=15547
via san giorgio morgeto 87,Il forno dei desideri,5502,41.835118102262,12.585507664082,Rome,Bakery,http://tour-pedia.org/api/getPlaceDetails?id=5502,http://tour-pedia.org/api/getReviewsByPlaceId?placeId=5502
Via Ponte delle Sette Miglia 38-40,Le Delizie della Tavola,11128,41.837866003296,12.601235296155,Rome,Bakery,http://tour-pedia.org/api/getPlaceDetails?id=11128,http://tour-pedia.org/api/getReviewsByPlaceId?placeId=11128
Via Capistrano,piterpan,16765,41.838886260986,12.585866928101,Rome,Bakery,http://tour-pedia.org/api/getPlaceDetails?id=16765,http://tour-pedia.org/api/getReviewsByPlaceId?placeId=16765
,L'Oasi del Pane,20763,41.84575,12.457822,Rome,Bakery,http://tour-pedia.org/api/getPlaceDetails?id=20763,http://tour-pedia.org/api/getReviewsByPlaceId?placeId=20763
"Via Attilio Ambrosini, 27",Panificio Nebbia,7701,41.848334,12.489128,Rome,Bakery,http://tour-pedia.org/api/getPlaceDetails?id=7701,http://tour-pedia.org/api/getReviewsByPlaceId?placeId=7701
,La Bottega Della Pasta,13169,41.849624,12.590848,Rome,Bakery,http://tour-pedia.org/api/getPlaceDetails?id=13169,http://tour-pedia.org/api/getReviewsByPlaceId?placeId=13169
,Il Giardino del Pane,21466,41.850660308691,12.423178382906,Rome,Bakery,http://tour-pedia.org/api/getPlaceDetails?id=21466,http://tour-pedia.org/api/getReviewsByPlaceId?placeId=21466
,Fior Di Grano,13268,41.851177432697,12.456253884395,Rome,Bakery,http://tour-pedia.org/api/getPlaceDetails?id=13268,http://tour-pedia.org/api/getReviewsByPlaceId?placeId=13268
viale Antonio Ciamarra 166,Pan Biscotto,888,41.851981726309,12.590761184692,Rome,Bakery,http://tour-pedia.org/api/getPlaceDetails?id=888,http://tour-pedia.org/api/getReviewsByPlaceId?placeId=888
,La fonte del pane,15075,41.852611118233,12.478531681639,Rome,Bakery,http://tour-pedia.org/api/getPlaceDetails?id=15075,http://tour-pedia.org/api/getReviewsByPlaceId?placeId=15075
,Via Lucio Papirio,26104,41.85268456286,12.561102132233,Rome,Bakery,http://tour-pedia.org/api/getPlaceDetails?id=26104,http://tour-pedia.org/api/getReviewsByPlaceId?placeId=26104
,Panificio Bianchi,14591,41.852982832841,12.4493569947,Rome,Bakery,http://tour-pedia.org/api/getPlaceDetails?id=14591,http://tour-pedia.org/api/getReviewsByPlaceId?placeId=14591
Via Adeodato Matricardi 26,Pane E Pane,23052,41.853794296948,12.444598832947,Rome,Bakery,http://tour-pedia.org/api/getPlaceDetails?id=23052,http://tour-pedia.org/api/getReviewsByPlaceId?placeId=23052
"Viale Giulio Agricola, 129",Sorelle Giordano,1922,41.854258,12.559963,Rome,Bakery,http://tour-pedia.org/api/getPlaceDetails?id=1922,http://tour-pedia.org/api/getReviewsByPlaceId?placeId=1922
Via Del Padiglione 119,panificio Frascati,20559,41.854934692383,12.684392929077,Rome,Bakery,http://tour-pedia.org/api/getPlaceDetails?id=20559,http://tour-pedia.org/api/getReviewsByPlaceId?placeId=20559
"Piazza Quinto Curzio, 45","Panificio ""Il Biscopan"" (dal 1958)",15100,41.855497933056,12.568563222885,Rome,Bakery,http://tour-pedia.org/api/getPlaceDetails?id=15100,http://tour-pedia.org/api/getReviewsByPlaceId?placeId=15100
,Forno Villa Verde,21330,41.855982,12.654922,Rome,Bakery,http://tour-pedia.org/api/getPlaceDetails?id=21330,http://tour-pedia.org/api/getReviewsByPlaceId?placeId=21330
Via Nicola Da Guardiagrele,Panificio Pelliccioni,17165,41.861061,12.605232,Rome,Bakery,http://tour-pedia.org/api/getPlaceDetails?id=17165,http://tour-pedia.org/api/getReviewsByPlaceId?placeId=17165
,Buoni Sapori,19824,41.861455124335,12.56920497998,Rome,Bakery,http://tour-pedia.org/api/getPlaceDetails?id=19824,http://tour-pedia.org/api/getReviewsByPlaceId?placeId=19824
"Piazza dei Navigatori, 4/a",La Fonte - Conad,3426,41.861777,12.498859,Rome,Bakery,http://tour-pedia.org/api/getPlaceDetails?id=3426,http://tour-pedia.org/api/getReviewsByPlaceId?placeId=3426
,Il Forno,25900,41.861866,12.558871,Rome,Bakery,http://tour-pedia.org/api/getPlaceDetails?id=25900,http://tour-pedia.org/api/getReviewsByPlaceId?placeId=25900
Via Saredo,Pizza Da Iole,23141,41.862033843994,12.572221755981,Rome,Bakery,http://tour-pedia.org/api/getPlaceDetails?id=23141,http://tour-pedia.org/api/getReviewsByPlaceId?placeId=23141
Largo S. Ansaldo 2,Bakery & Coffee,20781,41.863966,12.485365,Rome,Bakery,http://tour-pedia.org/api/getPlaceDetails?id=20781,http://tour-pedia.org/api/getReviewsByPlaceId?placeId=20781
"Via Scribonio Curione, 69-71",Biscopì,5479,41.864184868049,12.553957978496,Rome,Bakery,http://tour-pedia.org/api/getPlaceDetails?id=5479,http://tour-pedia.org/api/getReviewsByPlaceId?placeId=5479
"Via delle Rondini, 46, 00169 Roma",Forno Castelli Romani,14143,41.865203857422,12.593195915222,Rome,Bakery,http://tour-pedia.org/api/getPlaceDetails?id=14143,http://tour-pedia.org/api/getReviewsByPlaceId?placeId=14143
Via di Centocelle 536,Punjabi,4491,41.865539958818,12.554154086595,Rome,Bakery,http://tour-pedia.org/api/getPlaceDetails?id=4491,http://tour-pedia.org/api/getReviewsByPlaceId?placeId=4491
,Cornetteria,17865,41.865595810642,12.650831123665,Rome,Bakery,http://tour-pedia.org/api/getPlaceDetails?id=17865,http://tour-pedia.org/api/getReviewsByPlaceId?placeId=17865
,Forno MelTuc,24685,41.866083,12.486959,Rome,Bakery,http://tour-pedia.org/api/getPlaceDetails?id=24685,http://tour-pedia.org/api/getReviewsByPlaceId?placeId=24685
Via Valtellina,Forno Trevisiol,25600,41.867561,12.447928,Rome,Bakery,http://tour-pedia.org/api/getPlaceDetails?id=25600,http://tour-pedia.org/api/getReviewsByPlaceId?placeId=25600
Via folco portinari,Forno Marchetti,3613,41.868657017983,12.449502541616,Rome,Bakery,http://tour-pedia.org/api/getPlaceDetails?id=3613,http://tour-pedia.org/api/getReviewsByPlaceId?placeId=3613
Via rosa govona 1,Supermercato Metà,8256,41.870557,12.45447,Rome,Bakery,http://tour-pedia.org/api/getPlaceDetails?id=8256,http://tour-pedia.org/api/getReviewsByPlaceId?placeId=8256
Via E. Jenner 44,Pan...ico‘,25294,41.873123168945,12.444538116455,Rome,Bakery,http://tour-pedia.org/api/getPlaceDetails?id=25294,http://tour-pedia.org/api/getReviewsByPlaceId?placeId=25294
Viale Marco Celio Rufo,La Trottola,12975,41.873281856313,12.618854354289,Rome,Bakery,http://tour-pedia.org/api/getPlaceDetails?id=12975,http://tour-pedia.org/api/getReviewsByPlaceId?placeId=12975
"Via Alfredo Baccarini, 21",La Fonte Del Pane,24017,41.873680114746,12.518753051758,Rome,Bakery,http://tour-pedia.org/api/getPlaceDetails?id=24017,http://tour-pedia.org/api/getReviewsByPlaceId?placeId=24017
,Salumeria,24408,41.873809814453,12.513787269592,Rome,Bakery,http://tour-pedia.org/api/getPlaceDetails?id=24408,http://tour-pedia.org/api/getReviewsByPlaceId?placeId=24408
,Fornocaffè,13157,41.874914006539,12.619302854017,Rome,Bakery,http://tour-pedia.org/api/getPlaceDetails?id=13157,http://tour-pedia.org/api/getReviewsByPlaceId?placeId=13157
"Via Satrico, 22-24",Gran Forno Lucarelli,13778,41.87577382772,12.505036681134,Rome,Bakery,http://tour-pedia.org/api/getPlaceDetails?id=13778,http://tour-pedia.org/api/getReviewsByPlaceId?placeId=13778
via casilina 606,Forno,12611,41.87729410028,12.549991607666,Rome,Bakery,http://tour-pedia.org/api/getPlaceDetails?id=12611,http://tour-pedia.org/api/getReviewsByPlaceId?placeId=12611
"Via Della Massimina, Snc",Cariani,23086,41.879741,12.35019,Rome,Bakery,http://tour-pedia.org/api/getPlaceDetails?id=23086,http://tour-pedia.org/api/getReviewsByPlaceId?placeId=23086
,Sciattella,9449,41.88007488198,12.56202109873,Rome,Bakery,http://tour-pedia.org/api/getPlaceDetails?id=9449,http://tour-pedia.org/api/getReviewsByPlaceId?placeId=9449
Via Casilina 391,Casilina Forno,20936,41.881463,12.538877,Rome,Bakery,http://tour-pedia.org/api/getPlaceDetails?id=20936,http://tour-pedia.org/api/getReviewsByPlaceId?placeId=20936
Via Maggi 57,Pane e Pizza,25509,41.88226,12.538439,Rome,Bakery,http://tour-pedia.org/api/getPlaceDetails?id=25509,http://tour-pedia.org/api/getReviewsByPlaceId?placeId=25509
"Via Tor Pignattara, 83",Bar Lo Spuntino,18972,41.882653213923,12.542231322705,Rome,Bakery,http://tour-pedia.org/api/getPlaceDetails?id=18972,http://tour-pedia.org/api/getReviewsByPlaceId?placeId=18972
Via dei Quattro Venti 33,Panificio New F.lli Carpiceti,21501,41.883590698242,12.458565711975,Rome,Bakery,http://tour-pedia.org/api/getPlaceDetails?id=21501,http://tour-pedia.org/api/getReviewsByPlaceId?placeId=21501
Via Fontanile Arenato 78,Mitico Cornettaro di Via Fontanile,23763,41.886041908378,12.419557400749,Rome,Bakery,http://tour-pedia.org/api/getPlaceDetails?id=23763,http://tour-pedia.org/api/getReviewsByPlaceId?placeId=23763
Via Firenze 52,Forno Firenze,13018,41.886463278639,12.40688767435,Rome,Bakery,http://tour-pedia.org/api/getPlaceDetails?id=13018,http://tour-pedia.org/api/getReviewsByPlaceId?placeId=13018
"via Pausania, 1",Dolce e Fantasia,4999,41.886889,12.534772,Rome,Bakery,http://tour-pedia.org/api/getPlaceDetails?id=4999,http://tour-pedia.org/api/getReviewsByPlaceId?placeId=4999
,Paninarte,4334,41.88828,12.421528,Rome,Bakery,http://tour-pedia.org/api/getPlaceDetails?id=4334,http://tour-pedia.org/api/getReviewsByPlaceId?placeId=4334
,Forno Ferrari,11065,41.889612567861,12.527088733035,Rome,Bakery,http://tour-pedia.org/api/getPlaceDetails?id=11065,http://tour-pedia.org/api/getReviewsByPlaceId?placeId=11065
Via Cherso 100,Panificio Costantini,8387,41.889943469924,12.562889640886,Rome,Bakery,http://tour-pedia.org/api/getPlaceDetails?id=8387,http://tour-pedia.org/api/getReviewsByPlaceId?placeId=8387
"Via dei Ginepri, 44",quando la fame chimica ti prende la notte XD ahahah :),24830,41.890556335449,12.575859069824,Rome,Bakery,http://tour-pedia.org/api/getPlaceDetails?id=24830,http://tour-pedia.org/api/getReviewsByPlaceId?placeId=24830
Via Palmiro Togliatti 936,L'artigiano Del Pane,11592,41.891273666613,12.574595987108,Rome,Bakery,http://tour-pedia.org/api/getPlaceDetails?id=11592,http://tour-pedia.org/api/getReviewsByPlaceId?placeId=11592
Viale telese,Forno berardi santino,25130,41.892027573163,12.533368491463,Rome,Bakery,http://tour-pedia.org/api/getPlaceDetails?id=25130,http://tour-pedia.org/api/getReviewsByPlaceId?placeId=25130
,Pane Ciociaro Cotto A Legna,17185,41.892119560706,12.542035234962,Rome,Bakery,http://tour-pedia.org/api/getPlaceDetails?id=17185,http://tour-pedia.org/api/getReviewsByPlaceId?placeId=17185
Via Prenestina 684,Fornaio Tor Tre Teste,22835,41.893805172394,12.585731849059,Rome,Bakery,http://tour-pedia.org/api/getPlaceDetails?id=22835,http://tour-pedia.org/api/getReviewsByPlaceId?placeId=22835
Via Cherso 100,Panificio Costantini,22526,41.895835986009,12.559807746753,Rome,Bakery,http://tour-pedia.org/api/getPlaceDetails?id=22526,http://tour-pedia.org/api/getReviewsByPlaceId?placeId=22526
Via Delle Betulle,Forno costantini,25981,41.896443772759,12.558743111605,Rome,Bakery,http://tour-pedia.org/api/getPlaceDetails?id=25981,http://tour-pedia.org/api/getReviewsByPlaceId?placeId=25981
Via Aurelia 56,Forno Gemme di Pane,22764,41.899889,12.452195,Rome,Bakery,http://tour-pedia.org/api/getPlaceDetails?id=22764,http://tour-pedia.org/api/getReviewsByPlaceId?placeId=22764
"Via Dino Penazzato, 93/95",I Molliconi,21457,41.900318075118,12.567888088314,Rome,Bakery,http://tour-pedia.org/api/getPlaceDetails?id=21457,http://tour-pedia.org/api/getReviewsByPlaceId?placeId=21457
Via Degli Armenti 72,La Bottega Del Pane,24763,41.905044,12.590047,Rome,Bakery,http://tour-pedia.org/api/getPlaceDetails?id=24763,http://tour-pedia.org/api/getReviewsByPlaceId?placeId=24763
"Via della Stazione di Tor Sapienza, 22",Panificio Todoro,13587,41.905536314134,12.594890177599,Rome,Bakery,http://tour-pedia.org/api/getPlaceDetails?id=13587,http://tour-pedia.org/api/getReviewsByPlaceId?placeId=13587
via Montespaccato 38,Grauso il salumerie,10362,41.905811163777,12.391757496319,Rome,Bakery,http://tour-pedia.org/api/getPlaceDetails?id=10362,http://tour-pedia.org/api/getReviewsByPlaceId?placeId=10362
"Via Mattia Battistini, 84",Bertollini,10106,41.906249609998,12.414700984955,Rome,Bakery,http://tour-pedia.org/api/getPlaceDetails?id=10106,http://tour-pedia.org/api/getReviewsByPlaceId?placeId=10106
,Panificio Fortini,23286,41.906891247123,12.416619285588,Rome,Bakery,http://tour-pedia.org/api/getPlaceDetails?id=23286,http://tour-pedia.org/api/getReviewsByPlaceId?placeId=23286
"Via Fabio Massimo, 87/A-89",Compagnia del Pane,1587,41.909343650821,12.461918592453,Rome,Bakery,http://tour-pedia.org/api/getPlaceDetails?id=1587,http://tour-pedia.org/api/getReviewsByPlaceId?placeId=1587
Via Tiburtina 608,Fornocafè,13696,41.909384633729,12.546085915488,Rome,Bakery,http://tour-pedia.org/api/getPlaceDetails?id=13696,http://tour-pedia.org/api/getReviewsByPlaceId?placeId=13696
"Via Catania, 79/81",9 Favole di pane (f.lli Rao),4424,41.909766124454,12.51993549362,Rome,Bakery,http://tour-pedia.org/api/getPlaceDetails?id=4424,http://tour-pedia.org/api/getReviewsByPlaceId?placeId=4424
Via Grotta Di Gregna 127,Il Fornaio,13550,41.910167,12.565268,Rome,Bakery,http://tour-pedia.org/api/getPlaceDetails?id=13550,http://tour-pedia.org/api/getReviewsByPlaceId?placeId=13550
"Viale Francesco Caltagirone, 406",Antichi Sapori,9404,41.910397886215,12.654167800833,Rome,Bakery,http://tour-pedia.org/api/getPlaceDetails?id=9404,http://tour-pedia.org/api/getReviewsByPlaceId?placeId=9404
"Via Trionfale, 36",Bonci,20312,41.911531741592,12.453309219529,Rome,Bakery,http://tour-pedia.org/api/getPlaceDetails?id=20312,http://tour-pedia.org/api/getReviewsByPlaceId?placeId=20312
Via Trionfale 33/36,Panificio Bonci,22276,41.911562039972,12.453258836194,Rome,Bakery,http://tour-pedia.org/api/getPlaceDetails?id=22276,http://tour-pedia.org/api/getReviewsByPlaceId?placeId=22276
,Pizzette Della Balduina,3609,41.912832664944,12.442706819374,Rome,Bakery,http://tour-pedia.org/api/getPlaceDetails?id=3609,http://tour-pedia.org/api/getReviewsByPlaceId?placeId=3609
,La Magia Dei Sapori,17503,41.913124,12.572193,Rome,Bakery,http://tour-pedia.org/api/getPlaceDetails?id=17503,http://tour-pedia.org/api/getReviewsByPlaceId?placeId=17503
,Pangoccioli,17489,41.913524975783,12.44281317433,Rome,Bakery,http://tour-pedia.org/api/getPlaceDetails?id=17489,http://tour-pedia.org/api/getReviewsByPlaceId?placeId=17489
"Via Barletta, 27",Dolce Maniera,16648,41.914238,12.389686,Rome,Bakery,http://tour-pedia.org/api/getPlaceDetails?id=16648,http://tour-pedia.org/api/getReviewsByPlaceId?placeId=16648
Via G.michelotti,il forno  Duebi,21801,41.91596807199,12.558698285078,Rome,Bakery,http://tour-pedia.org/api/getPlaceDetails?id=21801,http://tour-pedia.org/api/getReviewsByPlaceId?placeId=21801
"Viale Liegi, 35",Il Vialetto Del Pane,25803,41.921742263175,12.494040727615,Rome,Bakery,http://tour-pedia.org/api/getPlaceDetails?id=25803,http://tour-pedia.org/api/getReviewsByPlaceId?placeId=25803
"Viale Eritrea, 55/57",Panificio Pizza al suolo,18508,41.92636,12.515731,Rome,Bakery,http://tour-pedia.org/api/getPlaceDetails?id=18508,http://tour-pedia.org/api/getReviewsByPlaceId?placeId=18508
Mercato Parioli,Forno San Bartolomeo,2395,41.927464,12.484267,Rome,Bakery,http://tour-pedia.org/api/getPlaceDetails?id=2395,http://tour-pedia.org/api/getReviewsByPlaceId?placeId=2395
Via Giacomo Ciamician 25,Panificio (notturno),12868,41.928723747013,12.571076673196,Rome,Bakery,http://tour-pedia.org/api/getPlaceDetails?id=12868,http://tour-pedia.org/api/getReviewsByPlaceId?placeId=12868
Viale dei Parioli 95,Il Gianfornaio,15696,41.928961660198,12.486830281767,Rome,Bakery,http://tour-pedia.org/api/getPlaceDetails?id=15696,http://tour-pedia.org/api/getReviewsByPlaceId?placeId=15696
"Via Tommaso Salvini, 27-31",San Bartolomeo,4407,41.929026246071,12.492839097977,Rome,Bakery,http://tour-pedia.org/api/getPlaceDetails?id=4407,http://tour-pedia.org/api/getReviewsByPlaceId?placeId=4407
,Dolce Forno,3621,41.930422939537,12.46460684716,Rome,Bakery,http://tour-pedia.org/api/getPlaceDetails?id=3621,http://tour-pedia.org/api/getReviewsByPlaceId?placeId=3621
Piazza Menenio Agrippa 1,Pane Pizza Dolci,12154,41.934378002762,12.535670969009,Rome,Bakery,http://tour-pedia.org/api/getPlaceDetails?id=12154,http://tour-pedia.org/api/getReviewsByPlaceId?placeId=12154
Piazza Grecia,Alimentari CRAI,24710,41.934545580553,12.474802548084,Rome,Bakery,http://tour-pedia.org/api/getPlaceDetails?id=24710,http://tour-pedia.org/api/getReviewsByPlaceId?placeId=24710
"Piazza Menenio Agrippa, 1","Sfizio, sì",20124,41.934609363318,12.535636425018,Rome,Bakery,http://tour-pedia.org/api/getPlaceDetails?id=20124,http://tour-pedia.org/api/getReviewsByPlaceId?placeId=20124
,Specialità del Forno e della Tavola,7755,41.934691,12.512248,Rome,Bakery,http://tour-pedia.org/api/getPlaceDetails?id=7755,http://tour-pedia.org/api/getReviewsByPlaceId?placeId=7755
Via Monte Subasio 4,Il Forno dei Desideri,15670,41.935482316782,12.536853037483,Rome,Bakery,http://tour-pedia.org/api/getPlaceDetails?id=15670,http://tour-pedia.org/api/getReviewsByPlaceId?placeId=15670
via torrevecchia 56,pane e salame,6158,41.935916759154,12.422226954421,Rome,Bakery,http://tour-pedia.org/api/getPlaceDetails?id=6158,http://tour-pedia.org/api/getReviewsByPlaceId?placeId=6158
,Gentilini,3430,41.935988237917,12.614027485888,Rome,Bakery,http://tour-pedia.org/api/getPlaceDetails?id=3430,http://tour-pedia.org/api/getReviewsByPlaceId?placeId=3430
Largo Maresciallo Diaz 14/17,Nuovo Gianfornaio,21559,41.936602,12.465366,Rome,Bakery,http://tour-pedia.org/api/getPlaceDetails?id=21559,http://tour-pedia.org/api/getReviewsByPlaceId?placeId=21559
"Piazzale Ponte Milvio, 35",Il Gianfornaio,1674,41.937227414531,12.465894556881,Rome,Bakery,http://tour-pedia.org/api/getPlaceDetails?id=1674,http://tour-pedia.org/api/getReviewsByPlaceId?placeId=1674
Via Trionfale 8279,Pane e Salame,24452,41.937676134311,12.42676589991,Rome,Bakery,http://tour-pedia.org/api/getPlaceDetails?id=24452,http://tour-pedia.org/api/getReviewsByPlaceId?placeId=24452
Via Prati Della Farnesina 9a,Ibrad,13212,41.938488928178,12.463582288538,Rome,Bakery,http://tour-pedia.org/api/getPlaceDetails?id=13212,http://tour-pedia.org/api/getReviewsByPlaceId?placeId=13212
"Via Trionfale, 8686",Antico Forno,7090,41.94014881,12.42382956,Rome,Bakery,http://tour-pedia.org/api/getPlaceDetails?id=7090,http://tour-pedia.org/api/getReviewsByPlaceId?placeId=7090
,L'amico Fornaio,24337,41.941095,12.38671,Rome,Bakery,http://tour-pedia.org/api/getPlaceDetails?id=24337,http://tour-pedia.org/api/getReviewsByPlaceId?placeId=24337
,Massi 1948,15388,41.943077,12.473409,Rome,Bakery,http://tour-pedia.org/api/getPlaceDetails?id=15388,http://tour-pedia.org/api/getReviewsByPlaceId?placeId=15388
,Conad City,18131,41.94372032856,12.548657583507,Rome,Bakery,http://tour-pedia.org/api/getPlaceDetails?id=18131,http://tour-pedia.org/api/getReviewsByPlaceId?placeId=18131
Viale Jonio 354,PanCaldo,4870,41.945796762476,12.528662841769,Rome,Bakery,http://tour-pedia.org/api/getPlaceDetails?id=4870,http://tour-pedia.org/api/getReviewsByPlaceId?placeId=4870
,Voglia Di Pane,12130,41.946004545942,12.559650852533,Rome,Bakery,http://tour-pedia.org/api/getPlaceDetails?id=12130,http://tour-pedia.org/api/getReviewsByPlaceId?placeId=12130
"Via Poggio Bracciolini, 00156 Roma",Forno,13020,41.946607156662,12.572175046252,Rome,Bakery,http://tour-pedia.org/api/getPlaceDetails?id=13020,http://tour-pedia.org/api/getReviewsByPlaceId?placeId=13020
,Profumo Di Dolci,11605,41.950079185343,12.588175493561,Rome,Bakery,http://tour-pedia.org/api/getPlaceDetails?id=11605,http://tour-pedia.org/api/getReviewsByPlaceId?placeId=11605
Via Carlo Arturo Jemolo 295,Profumo di Forno,21726,41.950372868862,12.580872737287,Rome,Bakery,http://tour-pedia.org/api/getPlaceDetails?id=21726,http://tour-pedia.org/api/getReviewsByPlaceId?placeId=21726
Via Piero Foscari,Alimentari Di Sante,15433,41.951322,12.518335,Rome,Bakery,http://tour-pedia.org/api/getPlaceDetails?id=15433,http://tour-pedia.org/api/getReviewsByPlaceId?placeId=15433
via annunzio cervi,Panificio Faripan,7083,41.951830611989,12.54644036293,Rome,Bakery,http://tour-pedia.org/api/getPlaceDetails?id=7083,http://tour-pedia.org/api/getReviewsByPlaceId?placeId=7083
,AL FORNO,10448,41.957482527547,12.487452,Rome,Bakery,http://tour-pedia.org/api/getPlaceDetails?id=10448,http://tour-pedia.org/api/getReviewsByPlaceId?placeId=10448
Via Serra Di Sotto,Panificio Gianessi,13225,41.95891,12.4018,Rome,Bakery,http://tour-pedia.org/api/getPlaceDetails?id=13225,http://tour-pedia.org/api/getReviewsByPlaceId?placeId=13225
,Spiga d'oro,9418,41.970168,12.51672,Rome,Bakery,http://tour-pedia.org/api/getPlaceDetails?id=9418,http://tour-pedia.org/api/getReviewsByPlaceId?placeId=9418
Via Cassia 951,Forno Fiocchetti,12786,41.971120385422,12.43400284414,Rome,Bakery,http://tour-pedia.org/api/getPlaceDetails?id=12786,http://tour-pedia.org/api/getReviewsByPlaceId?placeId=12786
,dar pizzettaro,21115,41.97269821167,12.432569503784,Rome,Bakery,http://tour-pedia.org/api/getPlaceDetails?id=21115,http://tour-pedia.org/api/getReviewsByPlaceId?placeId=21115
"Via di Tor San Giovanni, 97",Sculture Di Pane,4417,41.980120093709,12.561006873931,Rome,Bakery,http://tour-pedia.org/api/getPlaceDetails?id=4417,http://tour-pedia.org/api/getReviewsByPlaceId?placeId=4417
"Via del Labaro, 38",Panificio di Nicola,2184,41.988209,12.4943,Rome,Bakery,http://tour-pedia.org/api/getPlaceDetails?id=2184,http://tour-pedia.org/api/getReviewsByPlaceId?placeId=2184
,Vapoforno Marcucci,9688,42.012646722966,12.367751460735,Rome,Bakery,http://tour-pedia.org/api/getPlaceDetails?id=9688,http://tour-pedia.org/api/getReviewsByPlaceId?placeId=9688
"Via Anton Giulio Bragaglia, 7",Il Gianfornaio,8949,42.021161264539,12.376270294189,Rome,Bakery,http://tour-pedia.org/api/getPlaceDetails?id=8949,http://tour-pedia.org/api/getReviewsByPlaceId?placeId=8949
"Viale Del Pattinaggio, 100",Aqvi Bar at Sheraton Roma,2051,41.842835562786,12.472030973892,Rome,Bar,http://tour-pedia.org/api/getPlaceDetails?id=2051,http://tour-pedia.org/api/getReviewsByPlaceId?placeId=2051
"Via Alessandro Severo, 224",Andracchio,6178,41.853476262425,12.487026274904,Rome,Bar,http://tour-pedia.org/api/getPlaceDetails?id=6178,http://tour-pedia.org/api/getReviewsByPlaceId?placeId=6178
Viale sacco e vanzetti,Bar Gran Caffe,7369,41.910246,12.571405,Rome,Bar,http://tour-pedia.org/api/getPlaceDetails?id=7369,http://tour-pedia.org/api/getReviewsByPlaceId?placeId=7369
"Via Giovanni Bettolo, 3/A",Banana Republic,2017,41.911334,12.455418,Rome,Bar,http://tour-pedia.org/api/getPlaceDetails?id=2017,http://tour-pedia.org/api/getReviewsByPlaceId?placeId=2017
,"Cesaretti, via di novella",2043,41.93001598764,12.511371239777,Rome,Bar,http://tour-pedia.org/api/getPlaceDetails?id=2043,http://tour-pedia.org/api/getReviewsByPlaceId?placeId=2043
,Mister Beef,4540,41.765662,12.341832,Rome,BBQ Joint,http://tour-pedia.org/api/getPlaceDetails?id=4540,http://tour-pedia.org/api/getReviewsByPlaceId?placeId=4540
"Via di Malafede, 205",Il Parco Grill Restaurant - Camping Village Fabulous,15475,41.777692,12.396981,Rome,BBQ Joint,http://tour-pedia.org/api/getPlaceDetails?id=15475,http://tour-pedia.org/api/getReviewsByPlaceId?placeId=15475
"Via Luigi Pietrobono,3",Coco' Ristorante Braceria Pizzeria,6180,41.789060546532,12.385144276555,Rome,BBQ Joint,http://tour-pedia.org/api/getPlaceDetails?id=6180,http://tour-pedia.org/api/getReviewsByPlaceId?placeId=6180
,ristorante dal pannocchia,14627,41.810767785761,12.445589633709,Rome,BBQ Joint,http://tour-pedia.org/api/getPlaceDetails?id=14627,http://tour-pedia.org/api/getReviewsByPlaceId?placeId=14627
via Taurianova 70,GiZi,6018,41.834701556633,12.557799518108,Rome,BBQ Joint,http://tour-pedia.org/api/getPlaceDetails?id=6018,http://tour-pedia.org/api/getReviewsByPlaceId?placeId=6018
,Quelli del vitello,22795,41.850200653076,12.559495925903,Rome,BBQ Joint,http://tour-pedia.org/api/getPlaceDetails?id=22795,http://tour-pedia.org/api/getReviewsByPlaceId?placeId=22795
,Rubbagalline,3171,41.855763416359,12.537637355042,Rome,BBQ Joint,http://tour-pedia.org/api/getPlaceDetails?id=3171,http://tour-pedia.org/api/getReviewsByPlaceId?placeId=3171
,Ristorante La Casa,1627,41.8607019,12.423585,Rome,BBQ Joint,http://tour-pedia.org/api/getPlaceDetails?id=1627,http://tour-pedia.org/api/getReviewsByPlaceId?placeId=1627
,Il Casale,1538,41.874223,12.357535,Rome,BBQ Joint,http://tour-pedia.org/api/getPlaceDetails?id=1538,http://tour-pedia.org/api/getReviewsByPlaceId?placeId=1538
,Bbq,16881,41.90445,12.387696,Rome,BBQ Joint,http://tour-pedia.org/api/getPlaceDetails?id=16881,http://tour-pedia.org/api/getReviewsByPlaceId?placeId=16881
Via Igea 37,Macelleria Nino e Giusi,1676,41.934045873544,12.442158253294,Rome,BBQ Joint,http://tour-pedia.org/api/getPlaceDetails?id=1676,http://tour-pedia.org/api/getReviewsByPlaceId?placeId=1676
Olimpica,Ruva fish,13700,41.934128,12.455988,Rome,BBQ Joint,http://tour-pedia.org/api/getPlaceDetails?id=13700,http://tour-pedia.org/api/getReviewsByPlaceId?placeId=13700
"Santa Maria di Galeria (RM)  Via Anguillarese km. 1,800",Tenuta dell'Olmo,22842,41.941592589655,12.482968568802,Rome,BBQ Joint,http://tour-pedia.org/api/getPlaceDetails?id=22842,http://tour-pedia.org/api/getReviewsByPlaceId?placeId=22842
,black jack parcheggio,19487,41.94179831635,12.638718949123,Rome,BBQ Joint,http://tour-pedia.org/api/getPlaceDetails?id=19487,http://tour-pedia.org/api/getReviewsByPlaceId?placeId=19487
Via Montecassiano 189,Il Fico d'India,6885,41.942633936089,12.572791484698,Rome,BBQ Joint,http://tour-pedia.org/api/getPlaceDetails?id=6885,http://tour-pedia.org/api/getReviewsByPlaceId?placeId=6885
39/C Piazzale Jonio,Pizzando Grigliando,499,41.946241851819,12.525021697829,Rome,BBQ Joint,http://tour-pedia.org/api/getPlaceDetails?id=499,http://tour-pedia.org/api/getReviewsByPlaceId?placeId=499
,Il gallo rosso,18477,41.969557084218,12.545111049855,Rome,BBQ Joint,http://tour-pedia.org/api/getPlaceDetails?id=18477,http://tour-pedia.org/api/getReviewsByPlaceId?placeId=18477
"Via Cassia, 1081",Paninaro Via Cassia Altezza GRA,3335,41.975675225258,12.424507,Rome,BBQ Joint,http://tour-pedia.org/api/getPlaceDetails?id=3335,http://tour-pedia.org/api/getReviewsByPlaceId?placeId=3335
,La Masseria,14623,41.99401473999,12.254907608032,Rome,BBQ Joint,http://tour-pedia.org/api/getPlaceDetails?id=14623,http://tour-pedia.org/api/getReviewsByPlaceId?placeId=14623
Via Cassia 1571,Le Terrazze,24719,41.999542,12.386092,Rome,BBQ Joint,http://tour-pedia.org/api/getPlaceDetails?id=24719,http://tour-pedia.org/api/getReviewsByPlaceId?placeId=24719
Viale Ostiense 251,beber,16052,41.859042824458,12.478122926807,Rome,Brazilian Restaurant,http://tour-pedia.org/api/getPlaceDetails?id=16052,http://tour-pedia.org/api/getReviewsByPlaceId?placeId=16052
via Tiburtina 949,RomaRio,25606,41.926968776589,12.571889244092,Rome,Brazilian Restaurant,http://tour-pedia.org/api/getPlaceDetails?id=25606,http://tour-pedia.org/api/getReviewsByPlaceId?placeId=25606
,Rionord Churrascaria,5651,41.95361835,12.457205,Rome,Brazilian Restaurant,http://tour-pedia.org/api/getPlaceDetails?id=5651,http://tour-pedia.org/api/getReviewsByPlaceId?placeId=5651
Piazza Anco Marzio 18,Krapfen Paglia,741,41.730043067998,12.278228724049,Rome,Breakfast Spot,http://tour-pedia.org/api/getPlaceDetails?id=741,http://tour-pedia.org/api/getReviewsByPlaceId?placeId=741
,Ndo' Zu' Turi,21677,41.737137,12.273079,Rome,Breakfast Spot,http://tour-pedia.org/api/getPlaceDetails?id=21677,http://tour-pedia.org/api/getReviewsByPlaceId?placeId=21677
Piazza Castrolibero 23,Lo spuntino bar tavola calda,11726,41.8065,12.6159,Rome,Breakfast Spot,http://tour-pedia.org/api/getPlaceDetails?id=11726,http://tour-pedia.org/api/getReviewsByPlaceId?placeId=11726
,Ristorante dei Condottieri,23026,41.814056269273,12.397716440348,Rome,Breakfast Spot,http://tour-pedia.org/api/getPlaceDetails?id=23026,http://tour-pedia.org/api/getReviewsByPlaceId?placeId=23026
Piazza castrolibero 23,Lo spuntino bar tavola calda,11747,41.822231232423,12.609738973717,Rome,Breakfast Spot,http://tour-pedia.org/api/getPlaceDetails?id=11747,http://tour-pedia.org/api/getReviewsByPlaceId?placeId=11747
"Viale dell'Aeronautica, 84",Bar Tavola Calda,5402,41.824894067487,12.477361414867,Rome,Breakfast Spot,http://tour-pedia.org/api/getPlaceDetails?id=5402,http://tour-pedia.org/api/getReviewsByPlaceId?placeId=5402
via Baldovinetti,Il forno delle delizie,8744,41.83203158604,12.494201660156,Rome,Breakfast Spot,http://tour-pedia.org/api/getPlaceDetails?id=8744,http://tour-pedia.org/api/getReviewsByPlaceId?placeId=8744
,Piazza john kennedy,17205,41.8342396851,12.473229181524,Rome,Breakfast Spot,http://tour-pedia.org/api/getPlaceDetails?id=17205,http://tour-pedia.org/api/getReviewsByPlaceId?placeId=17205
,Rif Raf Bar,12395,41.835751283515,12.602333956302,Rome,Breakfast Spot,http://tour-pedia.org/api/getPlaceDetails?id=12395,http://tour-pedia.org/api/getReviewsByPlaceId?placeId=12395
,Bar Fantasy,2292,41.836084054847,12.502281173703,Rome,Breakfast Spot,http://tour-pedia.org/api/getPlaceDetails?id=2292,http://tour-pedia.org/api/getReviewsByPlaceId?placeId=2292
,macchinetta del caffé lato CIO,20052,41.836372375488,12.484914779663,Rome,Breakfast Spot,http://tour-pedia.org/api/getPlaceDetails?id=20052,http://tour-pedia.org/api/getReviewsByPlaceId?placeId=20052
"Viale del Caravaggio, 95, 00147 Roma",Snack Bar Caravaggio,12489,41.852477008938,12.496809560288,Rome,Breakfast Spot,http://tour-pedia.org/api/getPlaceDetails?id=12489,http://tour-pedia.org/api/getReviewsByPlaceId?placeId=12489
Via Gabriello Chiabrera,Il Fornaio Leandro,10151,41.855721903576,12.479438786643,Rome,Breakfast Spot,http://tour-pedia.org/api/getPlaceDetails?id=10151,http://tour-pedia.org/api/getReviewsByPlaceId?placeId=10151
via della pisana,Bar Faraday,6689,41.856693281632,12.394079488704,Rome,Breakfast Spot,http://tour-pedia.org/api/getPlaceDetails?id=6689,http://tour-pedia.org/api/getReviewsByPlaceId?placeId=6689
,Antico Ristorante,3350,41.856896,12.529094,Rome,Breakfast Spot,http://tour-pedia.org/api/getPlaceDetails?id=3350,http://tour-pedia.org/api/getReviewsByPlaceId?placeId=3350
Tarquino Collatino,Pane e Pasta,5228,41.862636175925,12.564693988127,Rome,Breakfast Spot,http://tour-pedia.org/api/getPlaceDetails?id=5228,http://tour-pedia.org/api/getReviewsByPlaceId?placeId=5228
,Cornatora Domenico,17164,41.863829913028,12.547761134958,Rome,Breakfast Spot,http://tour-pedia.org/api/getPlaceDetails?id=17164,http://tour-pedia.org/api/getReviewsByPlaceId?placeId=17164
Via Carroceto,La Cornetteria,8533,41.866961390008,12.537222786522,Rome,Breakfast Spot,http://tour-pedia.org/api/getPlaceDetails?id=8533,http://tour-pedia.org/api/getReviewsByPlaceId?placeId=8533
,H10 Restaurant,24311,41.867164038389,12.471370285359,Rome,Breakfast Spot,http://tour-pedia.org/api/getPlaceDetails?id=24311,http://tour-pedia.org/api/getReviewsByPlaceId?placeId=24311
via dei colombi,Al 10 Di via dei Colombi,6687,41.86756665,12.59655002,Rome,Breakfast Spot,http://tour-pedia.org/api/getPlaceDetails?id=6687,http://tour-pedia.org/api/getReviewsByPlaceId?placeId=6687
,Bar Maró,5147,41.87304907841,12.443216204539,Rome,Breakfast Spot,http://tour-pedia.org/api/getPlaceDetails?id=5147,http://tour-pedia.org/api/getReviewsByPlaceId?placeId=5147
,Ristorante Maiorca,6001,41.875535,12.394693,Rome,Breakfast Spot,http://tour-pedia.org/api/getPlaceDetails?id=6001,http://tour-pedia.org/api/getReviewsByPlaceId?placeId=6001
Via Bravetta 354,La Dolce Venere,21326,41.877096922127,12.426223007819,Rome,Breakfast Spot,http://tour-pedia.org/api/getPlaceDetails?id=21326,http://tour-pedia.org/api/getReviewsByPlaceId?placeId=21326
"Viale di villa Pamphili, 63",Caffe Pamphili,6854,41.879991812024,12.45675213372,Rome,Breakfast Spot,http://tour-pedia.org/api/getPlaceDetails?id=6854,http://tour-pedia.org/api/getReviewsByPlaceId?placeId=6854
"Via Antonio Tempesta, 41/A",Pasticceria  Zampilli,4173,41.882285329519,12.540337689363,Rome,Breakfast Spot,http://tour-pedia.org/api/getPlaceDetails?id=4173,http://tour-pedia.org/api/getReviewsByPlaceId?placeId=4173
,So Easy & So Fast Cafe,7059,41.883324,12.499562,Rome,Breakfast Spot,http://tour-pedia.org/api/getPlaceDetails?id=7059,http://tour-pedia.org/api/getReviewsByPlaceId?placeId=7059
,Bar Ottavilla,11727,41.883653,12.455688,Rome,Breakfast Spot,http://tour-pedia.org/api/getPlaceDetails?id=11727,http://tour-pedia.org/api/getReviewsByPlaceId?placeId=11727
Piazza Ottavilla 01,Il Piccolo Bar,11576,41.884092,12.456562,Rome,Breakfast Spot,http://tour-pedia.org/api/getPlaceDetails?id=11576,http://tour-pedia.org/api/getReviewsByPlaceId?placeId=11576
"Via Fanfulla da Lodi, 68",Necci dal 1924,617,41.88916,12.530294,Rome,Breakfast Spot,http://tour-pedia.org/api/getPlaceDetails?id=617,http://tour-pedia.org/api/getReviewsByPlaceId?placeId=617
,Sala Colazione (@Eurostars Roma Congress),5889,41.891312,12.599808,Rome,Breakfast Spot,http://tour-pedia.org/api/getPlaceDetails?id=5889,http://tour-pedia.org/api/getReviewsByPlaceId?placeId=5889
,Ristorante San Peter,13167,41.891514981452,12.436739906428,Rome,Breakfast Spot,http://tour-pedia.org/api/getPlaceDetails?id=13167,http://tour-pedia.org/api/getReviewsByPlaceId?placeId=13167
rome,baalbak room,15491,41.891632223333,12.417917643254,Rome,Breakfast Spot,http://tour-pedia.org/api/getPlaceDetails?id=15491,http://tour-pedia.org/api/getReviewsByPlaceId?placeId=15491
,La Baita,8765,41.89262904514,12.379627962171,Rome,Breakfast Spot,http://tour-pedia.org/api/getPlaceDetails?id=8765,http://tour-pedia.org/api/getReviewsByPlaceId?placeId=8765
rome ergife,misalia 1,15515,41.892822,12.418746,Rome,Breakfast Spot,http://tour-pedia.org/api/getPlaceDetails?id=15515,http://tour-pedia.org/api/getReviewsByPlaceId?placeId=15515
via gregorio VII 237,Caffe Grecco,1517,41.895600971331,12.444752454758,Rome,Breakfast Spot,http://tour-pedia.org/api/getPlaceDetails?id=1517,http://tour-pedia.org/api/getReviewsByPlaceId?placeId=1517
,Kitchen Rome,15093,41.8958,12.444193,Rome,Breakfast Spot,http://tour-pedia.org/api/getPlaceDetails?id=15093,http://tour-pedia.org/api/getReviewsByPlaceId?placeId=15093
,Meal time Bar,14222,41.898090620558,12.42479023295,Rome,Breakfast Spot,http://tour-pedia.org/api/getPlaceDetails?id=14222,http://tour-pedia.org/api/getReviewsByPlaceId?placeId=14222
"Largo Beltramelli, 40",Monaco,16473,41.909746333938,12.537514104785,Rome,Breakfast Spot,http://tour-pedia.org/api/getPlaceDetails?id=16473,http://tour-pedia.org/api/getReviewsByPlaceId?placeId=16473
Via alessandria,Bar Le Sorelle,9392,41.911693550034,12.502421187721,Rome,Breakfast Spot,http://tour-pedia.org/api/getPlaceDetails?id=9392,http://tour-pedia.org/api/getReviewsByPlaceId?placeId=9392
"Via A. Baiamonti, 12",Baiamonti Lounge Bar,7901,41.913503402264,12.461392879486,Rome,Breakfast Spot,http://tour-pedia.org/api/getPlaceDetails?id=7901,http://tour-pedia.org/api/getReviewsByPlaceId?placeId=7901
,Pizzeria Boccione,5979,41.915907950967,12.546674200478,Rome,Breakfast Spot,http://tour-pedia.org/api/getPlaceDetails?id=5979,http://tour-pedia.org/api/getReviewsByPlaceId?placeId=5979
Piazza Balduina 10,Il Siciliano,1772,41.924116492651,12.44328337638,Rome,Breakfast Spot,http://tour-pedia.org/api/getPlaceDetails?id=1772,http://tour-pedia.org/api/getReviewsByPlaceId?placeId=1772
"VIA ELENA GIANNI BRANDIZZI, 30",La Tavola Allegra,3445,41.933052997253,12.578938007355,Rome,Breakfast Spot,http://tour-pedia.org/api/getPlaceDetails?id=3445,http://tour-pedia.org/api/getReviewsByPlaceId?placeId=3445
,Mensa Tecnopolo,2549,41.93305834468,12.633111888568,Rome,Breakfast Spot,http://tour-pedia.org/api/getPlaceDetails?id=2549,http://tour-pedia.org/api/getReviewsByPlaceId?placeId=2549
,Seven Bar,13089,41.935538618856,12.517050797608,Rome,Breakfast Spot,http://tour-pedia.org/api/getPlaceDetails?id=13089,http://tour-pedia.org/api/getReviewsByPlaceId?placeId=13089
,Bar Il Naturista,18880,41.939869087039,12.484618382585,Rome,Breakfast Spot,http://tour-pedia.org/api/getPlaceDetails?id=18880,http://tour-pedia.org/api/getReviewsByPlaceId?placeId=18880
Via di Valle Melaina 20,Pasticceria Melaina,3409,41.947375711831,12.525677095197,Rome,Breakfast Spot,http://tour-pedia.org/api/getPlaceDetails?id=3409,http://tour-pedia.org/api/getReviewsByPlaceId?placeId=3409
Via Francesco Cocco Ortu,Bar Mosca,11428,41.957965624666,12.522013640069,Rome,Breakfast Spot,http://tour-pedia.org/api/getPlaceDetails?id=11428,http://tour-pedia.org/api/getReviewsByPlaceId?placeId=11428
Via Vitorchiano,Macchinetta Del Caffe',10195,41.958150903088,12.487726253142,Rome,Breakfast Spot,http://tour-pedia.org/api/getPlaceDetails?id=10195,http://tour-pedia.org/api/getReviewsByPlaceId?placeId=10195
"Via Nicolò da Pistoia, 16",Bibere,11047,41.866212412459,12.486802282775,Rome,Brewery,http://tour-pedia.org/api/getPlaceDetails?id=11047,http://tour-pedia.org/api/getReviewsByPlaceId?placeId=11047
,Arthur,21706,41.807159,12.423467,Rome,Burger Joint,http://tour-pedia.org/api/getPlaceDetails?id=21706,http://tour-pedia.org/api/getReviewsByPlaceId?placeId=21706
,El Majico,3279,41.812099553718,12.331771595128,Rome,Burger Joint,http://tour-pedia.org/api/getPlaceDetails?id=3279,http://tour-pedia.org/api/getReviewsByPlaceId?placeId=3279
,Area Ristoro,23703,41.833176960028,12.436219355748,Rome,Burger Joint,http://tour-pedia.org/api/getPlaceDetails?id=23703,http://tour-pedia.org/api/getReviewsByPlaceId?placeId=23703
Via Enrico Ferri 43,Burger King - La Romanina,22265,41.840724179123,12.598471875725,Rome,Burger Joint,http://tour-pedia.org/api/getPlaceDetails?id=22265,http://tour-pedia.org/api/getReviewsByPlaceId?placeId=22265
,Casa Di Guido Molto Bellissimo,23670,41.846491,12.431632,Rome,Burger Joint,http://tour-pedia.org/api/getPlaceDetails?id=23670,http://tour-pedia.org/api/getReviewsByPlaceId?placeId=23670
"Viale Isacco Newton, 68",Biff,17550,41.858383178711,12.441247940063,Rome,Burger Joint,http://tour-pedia.org/api/getPlaceDetails?id=17550,http://tour-pedia.org/api/getReviewsByPlaceId?placeId=17550
,American Bar,6372,41.87041632784,12.580777462632,Rome,Burger Joint,http://tour-pedia.org/api/getPlaceDetails?id=6372,http://tour-pedia.org/api/getReviewsByPlaceId?placeId=6372
,Orfeo Paninaro,4093,41.89039837241,12.573901082213,Rome,Burger Joint,http://tour-pedia.org/api/getPlaceDetails?id=4093,http://tour-pedia.org/api/getReviewsByPlaceId?placeId=4093
Via ludovico micara 5,Macelleria abbacchi e polli da franchino,7246,41.894092373597,12.439152382191,Rome,Burger Joint,http://tour-pedia.org/api/getPlaceDetails?id=7246,http://tour-pedia.org/api/getReviewsByPlaceId?placeId=7246
Via del Teatro Pace 35,Hamburgeseria,19119,41.898774042654,12.471499063332,Rome,Burger Joint,http://tour-pedia.org/api/getPlaceDetails?id=19119,http://tour-pedia.org/api/getReviewsByPlaceId?placeId=19119
Via Giolitti,McDonald's,18646,41.900302553912,12.500953849332,Rome,Burger Joint,http://tour-pedia.org/api/getPlaceDetails?id=18646,http://tour-pedia.org/api/getReviewsByPlaceId?placeId=18646
Stazione Roma Termini,Mr. Panino,3707,41.900472334994,12.503943443298,Rome,Burger Joint,http://tour-pedia.org/api/getPlaceDetails?id=3707,http://tour-pedia.org/api/getReviewsByPlaceId?placeId=3707
,Burger Taste,16542,41.904569374858,12.389905531862,Rome,Burger Joint,http://tour-pedia.org/api/getPlaceDetails?id=16542,http://tour-pedia.org/api/getReviewsByPlaceId?placeId=16542
"Via Crescenzio, 52",QUARTO Burger & Drinks,16393,41.905758541988,12.463624477386,Rome,Burger Joint,http://tour-pedia.org/api/getPlaceDetails?id=16393,http://tour-pedia.org/api/getReviewsByPlaceId?placeId=16393
"Via Brescia, 28",Ham Holy Burger,16076,41.911946641466,12.500091376785,Rome,Burger Joint,http://tour-pedia.org/api/getPlaceDetails?id=16076,http://tour-pedia.org/api/getReviewsByPlaceId?placeId=16076
,Che Ce Mettemo,8440,41.914901882773,12.552798146012,Rome,Burger Joint,http://tour-pedia.org/api/getPlaceDetails?id=8440,http://tour-pedia.org/api/getReviewsByPlaceId?placeId=8440
,Tuck Shop,18850,42.001224,12.383744,Rome,Burger Joint,http://tour-pedia.org/api/getPlaceDetails?id=18850,http://tour-pedia.org/api/getReviewsByPlaceId?placeId=18850
Viale Giulio Cesare 199,McDonald's,20501,42.019130706787,12.366682052612,Rome,Burger Joint,http://tour-pedia.org/api/getPlaceDetails?id=20501,http://tour-pedia.org/api/getReviewsByPlaceId?placeId=20501
Via portuense 754,Casinó Caffè Portuense,5318,41.851044921011,12.425165215245,Rome,Burrito Place,http://tour-pedia.org/api/getPlaceDetails?id=5318,http://tour-pedia.org/api/getReviewsByPlaceId?placeId=5318
,On My Wc! What A Smell!,19236,41.950701,12.572259,Rome,Burrito Place,http://tour-pedia.org/api/getPlaceDetails?id=19236,http://tour-pedia.org/api/getReviewsByPlaceId?placeId=19236
,Casina del Bosco,17915,41.669154852193,12.397901088713,Rome,Café,http://tour-pedia.org/api/getPlaceDetails?id=17915,http://tour-pedia.org/api/getReviewsByPlaceId?placeId=17915
,Bar Seven Gate,15727,41.674246821027,12.391225962621,Rome,Café,http://tour-pedia.org/api/getPlaceDetails?id=15727,http://tour-pedia.org/api/getReviewsByPlaceId?placeId=15727
Via Di Ponte Di Piscina Cupa 64,Hopera (Italian Style Cafe'),20469,41.71436984464,12.445449689574,Rome,Café,http://tour-pedia.org/api/getPlaceDetails?id=20469,http://tour-pedia.org/api/getReviewsByPlaceId?placeId=20469
Via Di Ponte Di Piscina Cupa 64,Spaccio Cafe',20482,41.715006326764,12.446155009774,Rome,Café,http://tour-pedia.org/api/getPlaceDetails?id=20482,http://tour-pedia.org/api/getReviewsByPlaceId?placeId=20482
,La Fraschetteria,20227,41.716217438025,12.444414108338,Rome,Café,http://tour-pedia.org/api/getPlaceDetails?id=20227,http://tour-pedia.org/api/getReviewsByPlaceId?placeId=20227
"Via ponte di piscina cupa, 64",Akbar,17707,41.716464996338,12.444764137268,Rome,Café,http://tour-pedia.org/api/getPlaceDetails?id=17707,http://tour-pedia.org/api/getReviewsByPlaceId?placeId=17707
Castel romano 0564,Design Bistrot,8968,41.717672,12.445301,Rome,Café,http://tour-pedia.org/api/getPlaceDetails?id=8968,http://tour-pedia.org/api/getReviewsByPlaceId?placeId=8968
,Bar Fabiani,14364,41.720017376246,12.584454000522,Rome,Café,http://tour-pedia.org/api/getPlaceDetails?id=14364,http://tour-pedia.org/api/getReviewsByPlaceId?placeId=14364
Via delle Tartane 27,Bar Giusti,8638,41.725898,12.293091,Rome,Café,http://tour-pedia.org/api/getPlaceDetails?id=8638,http://tour-pedia.org/api/getReviewsByPlaceId?placeId=8638
,Bar Via Della Tolda 50,7827,41.726268,12.29383,Rome,Café,http://tour-pedia.org/api/getPlaceDetails?id=7827,http://tour-pedia.org/api/getReviewsByPlaceId?placeId=7827
Via Desiderato Pietri 99,Bar Pietri,8989,41.727358,12.29297,Rome,Café,http://tour-pedia.org/api/getPlaceDetails?id=8989,http://tour-pedia.org/api/getReviewsByPlaceId?placeId=8989
Lungomare Paolo Toscanelli 104,Bar Gelateria Diamante,9886,41.729436123147,12.276993465957,Rome,Café,http://tour-pedia.org/api/getPlaceDetails?id=9886,http://tour-pedia.org/api/getReviewsByPlaceId?placeId=9886
Via Pietro Rosa 18,Bar Scala Paradiso,744,41.730036655169,12.284550553739,Rome,Café,http://tour-pedia.org/api/getPlaceDetails?id=744,http://tour-pedia.org/api/getReviewsByPlaceId?placeId=744
Lungomare Paolo Toscanelli 114,White Cafè,14319,41.730046,12.276112,Rome,Café,http://tour-pedia.org/api/getPlaceDetails?id=14319,http://tour-pedia.org/api/getReviewsByPlaceId?placeId=14319
,Bar Pasticceria Dolci Fantasie 2,2614,41.73032744,12.30306461,Rome,Café,http://tour-pedia.org/api/getPlaceDetails?id=2614,http://tour-pedia.org/api/getReviewsByPlaceId?placeId=2614
Piazza Anco Marzio 11,Gelateria Casina Fiorita,3437,41.73038,12.278128,Rome,Café,http://tour-pedia.org/api/getPlaceDetails?id=3437,http://tour-pedia.org/api/getReviewsByPlaceId?placeId=3437
"Viale Paolo Orlando, 42A, 00122 Roma",Mr. Mojo cocktail bar,15431,41.730876922607,12.28556060791,Rome,Café,http://tour-pedia.org/api/getPlaceDetails?id=15431,http://tour-pedia.org/api/getReviewsByPlaceId?placeId=15431
Via Delle Fiamme Gialle 31,Gran Caffè Salerno,15893,41.731232,12.293816,Rome,Café,http://tour-pedia.org/api/getPlaceDetails?id=15893,http://tour-pedia.org/api/getReviewsByPlaceId?placeId=15893
,Bar $ al Dollaro,14667,41.732827798094,12.31336945095,Rome,Café,http://tour-pedia.org/api/getPlaceDetails?id=14667,http://tour-pedia.org/api/getReviewsByPlaceId?placeId=14667
Piazzale della Stazione del Lido,Bar della Stazione,13115,41.732921,12.284127,Rome,Café,http://tour-pedia.org/api/getPlaceDetails?id=13115,http://tour-pedia.org/api/getReviewsByPlaceId?placeId=13115
,Bar Jolly,21409,41.733042808018,12.288429909088,Rome,Café,http://tour-pedia.org/api/getPlaceDetails?id=21409,http://tour-pedia.org/api/getReviewsByPlaceId?placeId=21409
Via Di Castelporziano 333,Bar Million Bay,17522,41.733303,12.355205,Rome,Café,http://tour-pedia.org/api/getPlaceDetails?id=17522,http://tour-pedia.org/api/getReviewsByPlaceId?placeId=17522
Via Mar Rosso,bar la pinetina,20275,41.733818054199,12.298164367676,Rome,Café,http://tour-pedia.org/api/getPlaceDetails?id=20275,http://tour-pedia.org/api/getReviewsByPlaceId?placeId=20275
,Bar Magnanti,21558,41.734130374623,12.265429656694,Rome,Café,http://tour-pedia.org/api/getPlaceDetails?id=21558,http://tour-pedia.org/api/getReviewsByPlaceId?placeId=21558
,bar delle sirene,19979,41.734273278165,12.290783301475,Rome,Café,http://tour-pedia.org/api/getPlaceDetails?id=19979,http://tour-pedia.org/api/getReviewsByPlaceId?placeId=19979
Via Castel Porziano,Pompi,18976,41.73465415505,12.358415610177,Rome,Café,http://tour-pedia.org/api/getPlaceDetails?id=18976,http://tour-pedia.org/api/getReviewsByPlaceId?placeId=18976
Viale Dei Promontori 404,Bamboo Cafe,18017,41.734702,12.299469,Rome,Café,http://tour-pedia.org/api/getPlaceDetails?id=18017,http://tour-pedia.org/api/getReviewsByPlaceId?placeId=18017
Piazzale Della Stazione,Bar Da Leo,22501,41.734979914122,12.290229886442,Rome,Café,http://tour-pedia.org/api/getPlaceDetails?id=22501,http://tour-pedia.org/api/getReviewsByPlaceId?placeId=22501
,Baraonda,14669,41.7351,12.3703,Rome,Café,http://tour-pedia.org/api/getPlaceDetails?id=14669,http://tour-pedia.org/api/getReviewsByPlaceId?placeId=14669
,Ondanomala Baretto,8511,41.735398643565,12.258639483964,Rome,Café,http://tour-pedia.org/api/getPlaceDetails?id=8511,http://tour-pedia.org/api/getReviewsByPlaceId?placeId=8511
"Via delle Triremi, 8",King Bar,8556,41.735463,12.268189,Rome,Café,http://tour-pedia.org/api/getPlaceDetails?id=8556,http://tour-pedia.org/api/getReviewsByPlaceId?placeId=8556
,Ostia che caffé,21245,41.736043072159,12.267413695027,Rome,Café,http://tour-pedia.org/api/getPlaceDetails?id=21245,http://tour-pedia.org/api/getReviewsByPlaceId?placeId=21245
,crema & cioccolato via dei traghetti 75,15493,41.736261250814,12.278703826969,Rome,Café,http://tour-pedia.org/api/getPlaceDetails?id=15493,http://tour-pedia.org/api/getReviewsByPlaceId?placeId=15493
via delle gondole 175,Prestige,16169,41.73639618024,12.27317040118,Rome,Café,http://tour-pedia.org/api/getPlaceDetails?id=16169,http://tour-pedia.org/api/getReviewsByPlaceId?placeId=16169
"Viale Alfredo Zambrini, 21",Chicchi di caffè,7175,41.736543010814,12.26833820343,Rome,Café,http://tour-pedia.org/api/getPlaceDetails?id=7175,http://tour-pedia.org/api/getReviewsByPlaceId?placeId=7175
"Via Alessandro Piola Caselli, 44",Bar dello Studente,5642,41.736643085798,12.290541529655,Rome,Café,http://tour-pedia.org/api/getPlaceDetails?id=5642,http://tour-pedia.org/api/getReviewsByPlaceId?placeId=5642
Via della Corrazzata 59,Bar Sport,7916,41.736696,12.26291,Rome,Café,http://tour-pedia.org/api/getPlaceDetails?id=7916,http://tour-pedia.org/api/getReviewsByPlaceId?placeId=7916
Via Carlo Bosio 64,Bar Martin,743,41.736720617415,12.272577949692,Rome,Café,http://tour-pedia.org/api/getPlaceDetails?id=743,http://tour-pedia.org/api/getReviewsByPlaceId?placeId=743
Via Dei Velieri 98,Bar Velieri,15921,41.736796135226,12.276138295316,Rome,Café,http://tour-pedia.org/api/getPlaceDetails?id=15921,http://tour-pedia.org/api/getReviewsByPlaceId?placeId=15921
,Tony Revenge Bar,18411,41.737124,12.279265,Rome,Café,http://tour-pedia.org/api/getPlaceDetails?id=18411,http://tour-pedia.org/api/getReviewsByPlaceId?placeId=18411
Via Angelo Olivieri 150,Bar Lo Spuntino,18770,41.737279559049,12.291694879532,Rome,Café,http://tour-pedia.org/api/getPlaceDetails?id=18770,http://tour-pedia.org/api/getReviewsByPlaceId?placeId=18770
Via Isole Del Capo Verde 88,Green Bar,12596,41.737607426578,12.277960431533,Rome,Café,http://tour-pedia.org/api/getPlaceDetails?id=12596,http://tour-pedia.org/api/getReviewsByPlaceId?placeId=12596
Via Isole del Capo Verde 91,Caffè Il Girasole,9469,41.738145010756,12.274614034586,Rome,Café,http://tour-pedia.org/api/getPlaceDetails?id=9469,http://tour-pedia.org/api/getReviewsByPlaceId?placeId=9469
,Bar Senza Nome,22150,41.738675,12.287912,Rome,Café,http://tour-pedia.org/api/getPlaceDetails?id=22150,http://tour-pedia.org/api/getReviewsByPlaceId?placeId=22150
"via Isole Figi, 3",L'angolo Del Caffè,5887,41.739066,12.2811784,Rome,Café,http://tour-pedia.org/api/getPlaceDetails?id=5887,http://tour-pedia.org/api/getReviewsByPlaceId?placeId=5887
,Dual Caffè,24564,41.739074,12.287052,Rome,Café,http://tour-pedia.org/api/getPlaceDetails?id=24564,http://tour-pedia.org/api/getReviewsByPlaceId?placeId=24564
,Chocolate2,16014,41.739263011931,12.271348343477,Rome,Café,http://tour-pedia.org/api/getPlaceDetails?id=16014,http://tour-pedia.org/api/getReviewsByPlaceId?placeId=16014
Via carlo bosio 106,Gran Caffè Salerno,5327,41.739403835625,12.270755901703,Rome,Café,http://tour-pedia.org/api/getPlaceDetails?id=5327,http://tour-pedia.org/api/getReviewsByPlaceId?placeId=5327
"via delle Canarie, 39",Bar Canarie,5888,41.739443627943,12.282493544087,Rome,Café,http://tour-pedia.org/api/getPlaceDetails?id=5888,http://tour-pedia.org/api/getReviewsByPlaceId?placeId=5888
,Samuel Bar,23538,41.740058,12.2658,Rome,Café,http://tour-pedia.org/api/getPlaceDetails?id=23538,http://tour-pedia.org/api/getReviewsByPlaceId?placeId=23538
VIA Dei Romagnoli 717,Bar Degli Scavi Di Ostia Antica Gelmar Novamusa Lazio,20125,41.741229387833,12.283164303926,Rome,Café,http://tour-pedia.org/api/getPlaceDetails?id=20125,http://tour-pedia.org/api/getReviewsByPlaceId?placeId=20125
,Caffe' Martinica,18197,41.741353,12.260325,Rome,Café,http://tour-pedia.org/api/getPlaceDetails?id=18197,http://tour-pedia.org/api/getReviewsByPlaceId?placeId=18197
Via Castrucci,Cloud Cafè,23328,41.743488548156,12.366140425746,Rome,Café,http://tour-pedia.org/api/getPlaceDetails?id=23328,http://tour-pedia.org/api/getReviewsByPlaceId?placeId=23328
,Bar Il Cigno,2809,41.74413475,12.357236,Rome,Café,http://tour-pedia.org/api/getPlaceDetails?id=2809,http://tour-pedia.org/api/getReviewsByPlaceId?placeId=2809
,Novecento,8225,41.744409,12.347871,Rome,Café,http://tour-pedia.org/api/getPlaceDetails?id=8225,http://tour-pedia.org/api/getReviewsByPlaceId?placeId=8225
,Bar Cristal,1930,41.745176,12.345717,Rome,Café,http://tour-pedia.org/api/getPlaceDetails?id=1930,http://tour-pedia.org/api/getReviewsByPlaceId?placeId=1930
,MilleDolci,21283,41.74671,12.363839,Rome,Café,http://tour-pedia.org/api/getPlaceDetails?id=21283,http://tour-pedia.org/api/getReviewsByPlaceId?placeId=21283
Via Di Trigoria,Bar Di Trigoria,18381,41.748773551341,12.466364854501,Rome,Café,http://tour-pedia.org/api/getPlaceDetails?id=18381,http://tour-pedia.org/api/getReviewsByPlaceId?placeId=18381
,Prince bar,14448,41.7497128,12.3680961,Rome,Café,http://tour-pedia.org/api/getPlaceDetails?id=14448,http://tour-pedia.org/api/getReviewsByPlaceId?placeId=14448
Le terrazze,Caffe Elite,2278,41.750229653137,12.353499078189,Rome,Café,http://tour-pedia.org/api/getPlaceDetails?id=2278,http://tour-pedia.org/api/getReviewsByPlaceId?placeId=2278
,Bar Gatta,9077,41.750238,12.37627,Rome,Café,http://tour-pedia.org/api/getPlaceDetails?id=9077,http://tour-pedia.org/api/getReviewsByPlaceId?placeId=9077
,Gran Caffè Mirò,17402,41.750839446495,12.363863759431,Rome,Café,http://tour-pedia.org/api/getPlaceDetails?id=17402,http://tour-pedia.org/api/getReviewsByPlaceId?placeId=17402
Via E. W. Ferrari 260/268,"Gran Caffe ""Gli Angoli""",16677,41.75084,12.37212,Rome,Café,http://tour-pedia.org/api/getPlaceDetails?id=16677,http://tour-pedia.org/api/getReviewsByPlaceId?placeId=16677
P.le Filippo il Macedone,Rosso Rubino,1925,41.751304387207,12.354984283447,Rome,Café,http://tour-pedia.org/api/getPlaceDetails?id=1925,http://tour-pedia.org/api/getReviewsByPlaceId?placeId=1925
Via Wolf Ferrari 242,Caffè Pascià,13729,41.751505794962,12.374570645755,Rome,Café,http://tour-pedia.org/api/getPlaceDetails?id=13729,http://tour-pedia.org/api/getReviewsByPlaceId?placeId=13729
"Via Laurentina, 1549",Bar Sbarbati,5361,41.75160665682,12.501015454763,Rome,Café,http://tour-pedia.org/api/getPlaceDetails?id=5361,http://tour-pedia.org/api/getReviewsByPlaceId?placeId=5361
,Caffè Roma,15585,41.751611010087,12.37398325095,Rome,Café,http://tour-pedia.org/api/getPlaceDetails?id=15585,http://tour-pedia.org/api/getReviewsByPlaceId?placeId=15585
Piazza Filippo il Macedone,Gran Caffè Gamini,9859,41.751617,12.354662,Rome,Café,http://tour-pedia.org/api/getPlaceDetails?id=9859,http://tour-pedia.org/api/getReviewsByPlaceId?placeId=9859
,Bar Gli Angoli,15341,41.752499,12.373022,Rome,Café,http://tour-pedia.org/api/getPlaceDetails?id=15341,http://tour-pedia.org/api/getReviewsByPlaceId?placeId=15341
,Dalle Alpi All'Etna,13849,41.752972840958,12.357358453726,Rome,Café,http://tour-pedia.org/api/getPlaceDetails?id=13849,http://tour-pedia.org/api/getReviewsByPlaceId?placeId=13849
,Caffetteria degli scavi,23862,41.755950940411,12.287295155711,Rome,Café,http://tour-pedia.org/api/getPlaceDetails?id=23862,http://tour-pedia.org/api/getReviewsByPlaceId?placeId=23862
Via Eschilo,Bar Colombo,2065,41.756071,12.369711,Rome,Café,http://tour-pedia.org/api/getPlaceDetails?id=2065,http://tour-pedia.org/api/getReviewsByPlaceId?placeId=2065
,Cuorvivo,9949,41.756333,12.368338,Rome,Café,http://tour-pedia.org/api/getPlaceDetails?id=9949,http://tour-pedia.org/api/getReviewsByPlaceId?placeId=9949
,Orsetto Goloso,2115,41.75671814,12.36755498,Rome,Café,http://tour-pedia.org/api/getPlaceDetails?id=2115,http://tour-pedia.org/api/getReviewsByPlaceId?placeId=2115
"Via Menippo, 12",Bar Le Mimose,2793,41.758441734875,12.361229149122,Rome,Café,http://tour-pedia.org/api/getPlaceDetails?id=2793,http://tour-pedia.org/api/getReviewsByPlaceId?placeId=2793
"Viale Dei Romagnoli, 756",Dolce Caffè,12964,41.760362006186,12.302286021108,Rome,Café,http://tour-pedia.org/api/getPlaceDetails?id=12964,http://tour-pedia.org/api/getReviewsByPlaceId?placeId=12964
Via delle saline 20,Bar Delle Saline,4880,41.761982,12.301511,Rome,Café,http://tour-pedia.org/api/getPlaceDetails?id=4880,http://tour-pedia.org/api/getReviewsByPlaceId?placeId=4880
,David's café-cioccolateria,19689,41.763106121193,12.36379104112,Rome,Café,http://tour-pedia.org/api/getPlaceDetails?id=19689,http://tour-pedia.org/api/getReviewsByPlaceId?placeId=19689
,Caffé Stella,11929,41.764410206462,12.558597425456,Rome,Café,http://tour-pedia.org/api/getPlaceDetails?id=11929,http://tour-pedia.org/api/getReviewsByPlaceId?placeId=11929
Via Anselmo Banduri 55,Bar Ario',17397,41.766338812132,12.31353159578,Rome,Café,http://tour-pedia.org/api/getPlaceDetails?id=17397,http://tour-pedia.org/api/getReviewsByPlaceId?placeId=17397
"Via Padre Massaruti,227",Pink Bar,1854,41.766790242282,12.351384867864,Rome,Café,http://tour-pedia.org/api/getPlaceDetails?id=1854,http://tour-pedia.org/api/getReviewsByPlaceId?placeId=1854
Via Federico Alessandrini,Bios Logos,19421,41.766952627605,12.47120231431,Rome,Café,http://tour-pedia.org/api/getPlaceDetails?id=19421,http://tour-pedia.org/api/getReviewsByPlaceId?placeId=19421
,Rosolino,14442,41.768618863372,12.470983952317,Rome,Café,http://tour-pedia.org/api/getPlaceDetails?id=14442,http://tour-pedia.org/api/getReviewsByPlaceId?placeId=14442
,Bar Casarola,12523,41.769759758372,12.479130818085,Rome,Café,http://tour-pedia.org/api/getPlaceDetails?id=12523,http://tour-pedia.org/api/getReviewsByPlaceId?placeId=12523
Via Alvaro Del Portillo,Bar-policlinico UCBM,14353,41.770872746004,12.467977318249,Rome,Café,http://tour-pedia.org/api/getPlaceDetails?id=14353,http://tour-pedia.org/api/getReviewsByPlaceId?placeId=14353
Via Maccari,Teo,19049,41.771479,12.359437,Rome,Café,http://tour-pedia.org/api/getPlaceDetails?id=19049,http://tour-pedia.org/api/getReviewsByPlaceId?placeId=19049
Via di Macchia Saponara 64,Bar Domino,17407,41.771499976731,12.354992472981,Rome,Café,http://tour-pedia.org/api/getPlaceDetails?id=17407,http://tour-pedia.org/api/getReviewsByPlaceId?placeId=17407
"Via di Acilia, 160",Gli Ulivi,4119,41.77292352217,12.371236521673,Rome,Café,http://tour-pedia.org/api/getPlaceDetails?id=4119,http://tour-pedia.org/api/getReviewsByPlaceId?placeId=4119
Via Macchia Saponara 64,gran caffe domino,16452,41.774034358786,12.352464340645,Rome,Café,http://tour-pedia.org/api/getPlaceDetails?id=16452,http://tour-pedia.org/api/getReviewsByPlaceId?placeId=16452
Via Di Dragone,Eroma bar,15752,41.774908578534,12.338130013142,Rome,Café,http://tour-pedia.org/api/getPlaceDetails?id=15752,http://tour-pedia.org/api/getReviewsByPlaceId?placeId=15752
Via Renzo Bertani,Snack Bar,5000,41.775962749151,12.435553278258,Rome,Café,http://tour-pedia.org/api/getPlaceDetails?id=5000,http://tour-pedia.org/api/getReviewsByPlaceId?placeId=5000
,Bar Elite,22788,41.776159627454,12.370705084854,Rome,Café,http://tour-pedia.org/api/getPlaceDetails?id=22788,http://tour-pedia.org/api/getReviewsByPlaceId?placeId=22788
"Via S. Ga sbarra, 36/40",Da Flavia,3965,41.779288,12.333106,Rome,Café,http://tour-pedia.org/api/getPlaceDetails?id=3965,http://tour-pedia.org/api/getReviewsByPlaceId?placeId=3965
Viale degli eroi di Rodi 146,Bar Della Valle,2394,41.779756550132,12.43745076982,Rome,Café,http://tour-pedia.org/api/getPlaceDetails?id=2394,http://tour-pedia.org/api/getReviewsByPlaceId?placeId=2394
,Area 51,19349,41.781336,12.379249,Rome,Café,http://tour-pedia.org/api/getPlaceDetails?id=19349,http://tour-pedia.org/api/getReviewsByPlaceId?placeId=19349
,Bar Sirena,23206,41.781503,12.333725,Rome,Café,http://tour-pedia.org/api/getPlaceDetails?id=23206,http://tour-pedia.org/api/getReviewsByPlaceId?placeId=23206
"via di Acilia, 52",Bar Pasticceria Martina,4582,41.782350601469,12.365804796363,Rome,Café,http://tour-pedia.org/api/getPlaceDetails?id=4582,http://tour-pedia.org/api/getReviewsByPlaceId?placeId=4582
Via San Leonardo Da Porto Maurizio,Gran Caffè LauraLaura,15294,41.782801,12.365842,Rome,Café,http://tour-pedia.org/api/getPlaceDetails?id=15294,http://tour-pedia.org/api/getReviewsByPlaceId?placeId=15294
Piazza San Leonardo da Porto Maurizio 18,Gran Caffé Andreani,16539,41.782801047868,12.365670204163,Rome,Café,http://tour-pedia.org/api/getPlaceDetails?id=16539,http://tour-pedia.org/api/getReviewsByPlaceId?placeId=16539
,Bar Illy,2307,41.78300168,12.436228525,Rome,Café,http://tour-pedia.org/api/getPlaceDetails?id=2307,http://tour-pedia.org/api/getReviewsByPlaceId?placeId=2307
,Cirillo Bar,12521,41.783337,12.427968,Rome,Café,http://tour-pedia.org/api/getPlaceDetails?id=12521,http://tour-pedia.org/api/getReviewsByPlaceId?placeId=12521
,Monnalisa Cafe,1304,41.78344,12.364997,Rome,Café,http://tour-pedia.org/api/getPlaceDetails?id=1304,http://tour-pedia.org/api/getReviewsByPlaceId?placeId=1304
,Artù Caffè,17990,41.783816,12.364015,Rome,Café,http://tour-pedia.org/api/getPlaceDetails?id=17990,http://tour-pedia.org/api/getReviewsByPlaceId?placeId=17990
,"Bar ""Spinaceto""",13379,41.783896460434,12.442841162492,Rome,Café,http://tour-pedia.org/api/getPlaceDetails?id=13379,http://tour-pedia.org/api/getReviewsByPlaceId?placeId=13379
Via Giuseppe Fagnano,Corner Bar,16167,41.784695692363,12.369491180701,Rome,Café,http://tour-pedia.org/api/getPlaceDetails?id=16167,http://tour-pedia.org/api/getReviewsByPlaceId?placeId=16167
"Via Dei Monti Di S.Paolo, 6",Bar Bucri,15460,41.784829,12.360349,Rome,Café,http://tour-pedia.org/api/getPlaceDetails?id=15460,http://tour-pedia.org/api/getReviewsByPlaceId?placeId=15460
Via carlo casini,Bar Dello Sport,3203,41.784953,12.337606,Rome,Café,http://tour-pedia.org/api/getPlaceDetails?id=3203,http://tour-pedia.org/api/getReviewsByPlaceId?placeId=3203
,bar bucri,15461,41.785225978189,12.353062809304,Rome,Café,http://tour-pedia.org/api/getPlaceDetails?id=15461,http://tour-pedia.org/api/getReviewsByPlaceId?placeId=15461
"Via Giovanni Salvaterra,26",Bar Mirror,2956,41.785803,12.331544,Rome,Café,http://tour-pedia.org/api/getPlaceDetails?id=2956,http://tour-pedia.org/api/getReviewsByPlaceId?placeId=2956
via benedetto croce,Bar Novecento,22127,41.785873002815,12.346983187444,Rome,Café,http://tour-pedia.org/api/getPlaceDetails?id=22127,http://tour-pedia.org/api/getReviewsByPlaceId?placeId=22127
Via castel di leva,Officine Del Caffè,6583,41.786985664814,12.518200260891,Rome,Café,http://tour-pedia.org/api/getPlaceDetails?id=6583,http://tour-pedia.org/api/getReviewsByPlaceId?placeId=6583
,La bombonera caffè,23983,41.787197113037,12.390758514404,Rome,Café,http://tour-pedia.org/api/getPlaceDetails?id=23983,http://tour-pedia.org/api/getReviewsByPlaceId?placeId=23983
,Bar Barberini,3801,41.787581569247,12.392703072988,Rome,Café,http://tour-pedia.org/api/getPlaceDetails?id=3801,http://tour-pedia.org/api/getReviewsByPlaceId?placeId=3801
Via Paolo Stoppa 76,La Bomboniera,17404,41.787596025898,12.392468076862,Rome,Café,http://tour-pedia.org/api/getPlaceDetails?id=17404,http://tour-pedia.org/api/getReviewsByPlaceId?placeId=17404
,Bar Vicere',13121,41.787706383219,12.392428910889,Rome,Café,http://tour-pedia.org/api/getPlaceDetails?id=13121,http://tour-pedia.org/api/getReviewsByPlaceId?placeId=13121
,caffè gima,15634,41.787845826288,12.394745321849,Rome,Café,http://tour-pedia.org/api/getPlaceDetails?id=15634,http://tour-pedia.org/api/getReviewsByPlaceId?placeId=15634
,Caffe Vari,20596,41.788209,12.446492,Rome,Café,http://tour-pedia.org/api/getPlaceDetails?id=20596,http://tour-pedia.org/api/getReviewsByPlaceId?placeId=20596
,Caffè di Leva,11311,41.788279859309,12.514659075669,Rome,Café,http://tour-pedia.org/api/getPlaceDetails?id=11311,http://tour-pedia.org/api/getReviewsByPlaceId?placeId=11311
Via Monti di San Paolo 41,Blueberry Caffè,7983,41.788306,12.357973,Rome,Café,http://tour-pedia.org/api/getPlaceDetails?id=7983,http://tour-pedia.org/api/getReviewsByPlaceId?placeId=7983
,Bar Del Parco,18084,41.789190404887,12.447470499639,Rome,Café,http://tour-pedia.org/api/getPlaceDetails?id=18084,http://tour-pedia.org/api/getReviewsByPlaceId?placeId=18084
Via dei Monti di S.Paolo,Bar-Gelateria La Pinetina,16329,41.790193242837,12.357515068868,Rome,Café,http://tour-pedia.org/api/getPlaceDetails?id=16329,http://tour-pedia.org/api/getReviewsByPlaceId?placeId=16329
Centro Comerciale Euroma2,Marilyn Cafè,21060,41.790911128462,12.445259365827,Rome,Café,http://tour-pedia.org/api/getPlaceDetails?id=21060,http://tour-pedia.org/api/getReviewsByPlaceId?placeId=21060
Via Casola Valzenio,Bar Caffè Centrale,8664,41.791659883562,12.407374514797,Rome,Café,http://tour-pedia.org/api/getPlaceDetails?id=8664,http://tour-pedia.org/api/getReviewsByPlaceId?placeId=8664
"Via Bruno de Finetti, 108",Veronica Cafè,20849,41.792294,12.483053,Rome,Café,http://tour-pedia.org/api/getPlaceDetails?id=20849,http://tour-pedia.org/api/getReviewsByPlaceId?placeId=20849
Via Bruno De Finetti,Pandolce,7242,41.792336437713,12.483616042404,Rome,Café,http://tour-pedia.org/api/getPlaceDetails?id=7242,http://tour-pedia.org/api/getReviewsByPlaceId?placeId=7242
Viale Dei Caduti Per La Resistenza 42,Caffé Del Duca,17538,41.792353883722,12.449726460312,Rome,Café,http://tour-pedia.org/api/getPlaceDetails?id=17538,http://tour-pedia.org/api/getReviewsByPlaceId?placeId=17538
,Gran Bar,24671,41.792446136475,12.447782516479,Rome,Café,http://tour-pedia.org/api/getPlaceDetails?id=24671,http://tour-pedia.org/api/getReviewsByPlaceId?placeId=24671
Via Sarsina 75,Il Chiosco,21644,41.793129,12.40659,Rome,Café,http://tour-pedia.org/api/getPlaceDetails?id=21644,http://tour-pedia.org/api/getReviewsByPlaceId?placeId=21644
,Bar D'Annunzio,11917,41.793356459685,12.480827455211,Rome,Café,http://tour-pedia.org/api/getPlaceDetails?id=11917,http://tour-pedia.org/api/getReviewsByPlaceId?placeId=11917
,Bar Gelateria Pasticceria Bartoli,3771,41.793820179618,12.405264888021,Rome,Café,http://tour-pedia.org/api/getPlaceDetails?id=3771,http://tour-pedia.org/api/getReviewsByPlaceId?placeId=3771
,Bar Lory,15725,41.794207649292,12.380248953636,Rome,Café,http://tour-pedia.org/api/getPlaceDetails?id=15725,http://tour-pedia.org/api/getReviewsByPlaceId?placeId=15725
Via Castel Di Leva 261,Rosati Caffé,11811,41.794342439774,12.507898670787,Rome,Café,http://tour-pedia.org/api/getPlaceDetails?id=11811,http://tour-pedia.org/api/getReviewsByPlaceId?placeId=11811
,caffè bonelli,20111,41.794424,12.425706,Rome,Café,http://tour-pedia.org/api/getPlaceDetails?id=20111,http://tour-pedia.org/api/getReviewsByPlaceId?placeId=20111
Viale Gianluigi Bonelli 225,Il Generale,5090,41.794777,12.425631,Rome,Café,http://tour-pedia.org/api/getPlaceDetails?id=5090,http://tour-pedia.org/api/getReviewsByPlaceId?placeId=5090
,BAR Roma,4560,41.795015952627,12.445371320934,Rome,Café,http://tour-pedia.org/api/getPlaceDetails?id=4560,http://tour-pedia.org/api/getReviewsByPlaceId?placeId=4560
,BAR Quadrifoglio,4804,41.79582470579,12.453079695627,Rome,Café,http://tour-pedia.org/api/getPlaceDetails?id=4804,http://tour-pedia.org/api/getReviewsByPlaceId?placeId=4804
Via Francesco Tumiati 19,Crociani Caffè,11771,41.796157929702,12.451747346532,Rome,Café,http://tour-pedia.org/api/getPlaceDetails?id=11771,http://tour-pedia.org/api/getReviewsByPlaceId?placeId=11771
,BarCode,25648,41.796180725098,12.432250976562,Rome,Café,http://tour-pedia.org/api/getPlaceDetails?id=25648,http://tour-pedia.org/api/getReviewsByPlaceId?placeId=25648
Via Ostiense km12.500,Bar Dal Pannocchia,6051,41.796270441051,12.407021974953,Rome,Café,http://tour-pedia.org/api/getPlaceDetails?id=6051,http://tour-pedia.org/api/getReviewsByPlaceId?placeId=6051
,Caffetteria Pasticceria Colombo,12328,41.796982625927,12.430823680977,Rome,Café,http://tour-pedia.org/api/getPlaceDetails?id=12328,http://tour-pedia.org/api/getReviewsByPlaceId?placeId=12328
Via Gaetano Trezza 29,Bar,10589,41.797492513929,12.434881607443,Rome,Café,http://tour-pedia.org/api/getPlaceDetails?id=10589,http://tour-pedia.org/api/getReviewsByPlaceId?placeId=10589
Aeroporto Roma Ciampino,Chef Express,3225,41.798959488136,12.59063243866,Rome,Café,http://tour-pedia.org/api/getPlaceDetails?id=3225,http://tour-pedia.org/api/getReviewsByPlaceId?placeId=3225
Via Appia Nuova,Bar Autogrill Ciampino Arrivi,13773,41.800241155775,12.5894982218,Rome,Café,http://tour-pedia.org/api/getPlaceDetails?id=13773,http://tour-pedia.org/api/getReviewsByPlaceId?placeId=13773
,Caffè Dei Desideri,2935,41.800522,12.482995390892,Rome,Café,http://tour-pedia.org/api/getPlaceDetails?id=2935,http://tour-pedia.org/api/getReviewsByPlaceId?placeId=2935
via laurentina,festival snack bar,18950,41.8006,12.4815,Rome,Café,http://tour-pedia.org/api/getPlaceDetails?id=18950,http://tour-pedia.org/api/getReviewsByPlaceId?placeId=18950
via alberto moravia 133,30 ml caffè,15829,41.801470879895,12.4689245224,Rome,Café,http://tour-pedia.org/api/getPlaceDetails?id=15829,http://tour-pedia.org/api/getReviewsByPlaceId?placeId=15829
Via elio chianesi,Dacrí,2455,41.802067762373,12.448321377802,Rome,Café,http://tour-pedia.org/api/getPlaceDetails?id=2455,http://tour-pedia.org/api/getReviewsByPlaceId?placeId=2455
,Gran Cafè,15852,41.805475353024,12.32488791041,Rome,Café,http://tour-pedia.org/api/getPlaceDetails?id=15852,http://tour-pedia.org/api/getReviewsByPlaceId?placeId=15852
Via Antonio Schivardi 48,Mini Club,11859,41.80563,12.439216,Rome,Café,http://tour-pedia.org/api/getPlaceDetails?id=11859,http://tour-pedia.org/api/getReviewsByPlaceId?placeId=11859
,Citycafe,6373,41.806319071348,12.335529561078,Rome,Café,http://tour-pedia.org/api/getPlaceDetails?id=6373,http://tour-pedia.org/api/getReviewsByPlaceId?placeId=6373
,Caffè La Seta,15273,41.80634912156,12.445281756839,Rome,Café,http://tour-pedia.org/api/getPlaceDetails?id=15273,http://tour-pedia.org/api/getReviewsByPlaceId?placeId=15273
,pasticceria viola rosso,23885,41.806803689236,12.477551792375,Rome,Café,http://tour-pedia.org/api/getPlaceDetails?id=23885,http://tour-pedia.org/api/getReviewsByPlaceId?placeId=23885
,Bar Eiffell,22587,41.80806955045,12.337207265175,Rome,Café,http://tour-pedia.org/api/getPlaceDetails?id=22587,http://tour-pedia.org/api/getReviewsByPlaceId?placeId=22587
Via Beata Vergine Del Carmelo,Crystal,19010,41.808411,12.444944,Rome,Café,http://tour-pedia.org/api/getPlaceDetails?id=19010,http://tour-pedia.org/api/getReviewsByPlaceId?placeId=19010
,Bar della Piazzetta,20332,41.80846786499,12.455374717712,Rome,Café,http://tour-pedia.org/api/getPlaceDetails?id=20332,http://tour-pedia.org/api/getReviewsByPlaceId?placeId=20332
viale del oceano Pacifico 83,picadilly,17502,41.808837013914,12.455772432067,Rome,Café,http://tour-pedia.org/api/getPlaceDetails?id=17502,http://tour-pedia.org/api/getReviewsByPlaceId?placeId=17502
"Via pazzano , 90",Civa's Bar,24262,41.80935227132,12.616292332886,Rome,Café,http://tour-pedia.org/api/getPlaceDetails?id=24262,http://tour-pedia.org/api/getReviewsByPlaceId?placeId=24262
,Bar Aladino,6664,41.8103483,12.4144833,Rome,Café,http://tour-pedia.org/api/getPlaceDetails?id=6664,http://tour-pedia.org/api/getReviewsByPlaceId?placeId=6664
Via cina,Bar pasticceria,3835,41.810805618277,12.445113824353,Rome,Café,http://tour-pedia.org/api/getPlaceDetails?id=3835,http://tour-pedia.org/api/getReviewsByPlaceId?placeId=3835
Via Francesco Sapori,C'era Una Volta,16340,41.810807367917,12.484002418301,Rome,Café,http://tour-pedia.org/api/getPlaceDetails?id=16340,http://tour-pedia.org/api/getReviewsByPlaceId?placeId=16340
Via del Fosso di S.Andrea,Bar Stella,5099,41.811048,12.626694,Rome,Café,http://tour-pedia.org/api/getPlaceDetails?id=5099,http://tour-pedia.org/api/getReviewsByPlaceId?placeId=5099
Via Laurentina 779/b,Tris Bar,3720,41.811510074375,12.486488694535,Rome,Café,http://tour-pedia.org/api/getPlaceDetails?id=3720,http://tour-pedia.org/api/getReviewsByPlaceId?placeId=3720
Viale Dell'Esercito 48,Bar dello Sport,18926,41.81243994356,12.484870368933,Rome,Café,http://tour-pedia.org/api/getPlaceDetails?id=18926,http://tour-pedia.org/api/getReviewsByPlaceId?placeId=18926
"Via Torre Di Morena , 37",Babel Caffé,24783,41.812528,12.611633,Rome,Café,http://tour-pedia.org/api/getPlaceDetails?id=24783,http://tour-pedia.org/api/getReviewsByPlaceId?placeId=24783
,Diamond Bar,12415,41.812577358315,12.61157768889,Rome,Café,http://tour-pedia.org/api/getPlaceDetails?id=12415,http://tour-pedia.org/api/getReviewsByPlaceId?placeId=12415
Via di Decima 202,Bar Mike,23855,41.81263989567,12.45266543415,Rome,Café,http://tour-pedia.org/api/getPlaceDetails?id=23855,http://tour-pedia.org/api/getReviewsByPlaceId?placeId=23855
Viale degli Astri,Gran Caffe,2891,41.812715,12.448608,Rome,Café,http://tour-pedia.org/api/getPlaceDetails?id=2891,http://tour-pedia.org/api/getReviewsByPlaceId?placeId=2891
Via del Fosso di S. Andrea 101,Bar Fiore,11195,41.812768350789,12.628637648576,Rome,Café,http://tour-pedia.org/api/getPlaceDetails?id=11195,http://tour-pedia.org/api/getReviewsByPlaceId?placeId=11195
Via del Fontanile Anagnino76/b,Moonlight Caffè,10782,41.812886719949,12.605641210569,Rome,Café,http://tour-pedia.org/api/getPlaceDetails?id=10782,http://tour-pedia.org/api/getReviewsByPlaceId?placeId=10782
Via del Fosso di S. Andrea 114,Bar Centroni,11196,41.812953731572,12.628559154677,Rome,Café,http://tour-pedia.org/api/getPlaceDetails?id=11196,http://tour-pedia.org/api/getReviewsByPlaceId?placeId=11196
"Via delle Moratelle, 107, 00148 Roma",Feeling Bar,13341,41.813071346994,12.330971925202,Rome,Café,http://tour-pedia.org/api/getPlaceDetails?id=13341,http://tour-pedia.org/api/getReviewsByPlaceId?placeId=13341
Via Stazione di Ciampino 62-68,Tavani's Bar,10763,41.813111565978,12.616471728601,Rome,Café,http://tour-pedia.org/api/getPlaceDetails?id=10763,http://tour-pedia.org/api/getReviewsByPlaceId?placeId=10763
,Caffé e... Di Randi Luigi,13407,41.814654196259,12.489249420636,Rome,Café,http://tour-pedia.org/api/getPlaceDetails?id=13407,http://tour-pedia.org/api/getReviewsByPlaceId?placeId=13407
Via della Grande Muraglia,Marron Glacee,21606,41.814861297607,12.444699287415,Rome,Café,http://tour-pedia.org/api/getPlaceDetails?id=21606,http://tour-pedia.org/api/getReviewsByPlaceId?placeId=21606
"Via della Grande Muraglia, 320/324",Bar Pasticceria Tornatora,22825,41.81490802637,12.444901110228,Rome,Café,http://tour-pedia.org/api/getPlaceDetails?id=22825,http://tour-pedia.org/api/getReviewsByPlaceId?placeId=22825
Viale Dell'Esercito 64,Snack Bar Di Sahlan Oznur,18495,41.81503227587,12.493505437632,Rome,Café,http://tour-pedia.org/api/getPlaceDetails?id=18495,http://tour-pedia.org/api/getReviewsByPlaceId?placeId=18495
,Bar Di Ruvo,5109,41.815651,12.618041,Rome,Café,http://tour-pedia.org/api/getPlaceDetails?id=5109,http://tour-pedia.org/api/getReviewsByPlaceId?placeId=5109
,Cafe Prestige,22138,41.81573,12.445932,Rome,Café,http://tour-pedia.org/api/getPlaceDetails?id=22138,http://tour-pedia.org/api/getReviewsByPlaceId?placeId=22138
Via Settemetri 66,Caffè Nuovo,10781,41.816386455545,12.607468649254,Rome,Café,http://tour-pedia.org/api/getPlaceDetails?id=10781,http://tour-pedia.org/api/getReviewsByPlaceId?placeId=10781
Centro Commerciale Euroma2,Bugsy's Cafè,6124,41.816457203218,12.460148334503,Rome,Café,http://tour-pedia.org/api/getPlaceDetails?id=6124,http://tour-pedia.org/api/getReviewsByPlaceId?placeId=6124
Centro Commerciale Euroma 2,Lavazza,16099,41.816585139657,12.459440231323,Rome,Café,http://tour-pedia.org/api/getPlaceDetails?id=16099,http://tour-pedia.org/api/getReviewsByPlaceId?placeId=16099
Centro Commercale Euroma2,Oronero Cafè,14945,41.816681091818,12.459869384766,Rome,Café,http://tour-pedia.org/api/getPlaceDetails?id=14945,http://tour-pedia.org/api/getReviewsByPlaceId?placeId=14945
"Viale Cesare Pavese, 100",Gran Caffè Pavese,25471,41.816694,12.476479,Rome,Café,http://tour-pedia.org/api/getPlaceDetails?id=25471,http://tour-pedia.org/api/getReviewsByPlaceId?placeId=25471
"Via Cesare Pavese, 318",Il Tempio del Caffè,7163,41.816699329393,12.470272878986,Rome,Café,http://tour-pedia.org/api/getPlaceDetails?id=7163,http://tour-pedia.org/api/getReviewsByPlaceId?placeId=7163
Centro Commerciale Euroma 2,Caffè Roma,7504,41.81703291518,12.458367347717,Rome,Café,http://tour-pedia.org/api/getPlaceDetails?id=7504,http://tour-pedia.org/api/getReviewsByPlaceId?placeId=7504
Via della Grande Muraglia 316,G.Tornatora,22744,41.81709241686,12.438715781844,Rome,Café,http://tour-pedia.org/api/getPlaceDetails?id=22744,http://tour-pedia.org/api/getReviewsByPlaceId?placeId=22744
via marino ghetaldi,rossella,21071,41.817105982679,12.490089411413,Rome,Café,http://tour-pedia.org/api/getPlaceDetails?id=21071,http://tour-pedia.org/api/getReviewsByPlaceId?placeId=21071
,Bar La Tazzina Stregata,10320,41.8172418,12.4690197,Rome,Café,http://tour-pedia.org/api/getPlaceDetails?id=10320,http://tour-pedia.org/api/getReviewsByPlaceId?placeId=10320
Viale Cesare pavese 417,LA CAFFETTERIA,18824,41.81786448999,12.46791601181,Rome,Café,http://tour-pedia.org/api/getPlaceDetails?id=18824,http://tour-pedia.org/api/getReviewsByPlaceId?placeId=18824
Via Acqua Acetosa Anagnina 65/a,Il Re Del Caffè,7102,41.817975936687,12.626893975211,Rome,Café,http://tour-pedia.org/api/getPlaceDetails?id=7102,http://tour-pedia.org/api/getReviewsByPlaceId?placeId=7102
Via Avignone 128,I Your Coffee,7721,41.818439541335,12.453986597651,Rome,Café,http://tour-pedia.org/api/getPlaceDetails?id=7721,http://tour-pedia.org/api/getReviewsByPlaceId?placeId=7721
,viale avignone 128,25684,41.818542480469,12.453845024109,Rome,Café,http://tour-pedia.org/api/getPlaceDetails?id=25684,http://tour-pedia.org/api/getReviewsByPlaceId?placeId=25684
Via Francica,Bar l'angoletto,12082,41.818583115929,12.623888863357,Rome,Café,http://tour-pedia.org/api/getPlaceDetails?id=12082,http://tour-pedia.org/api/getReviewsByPlaceId?placeId=12082
Viale Avignone 64,Cafe Des Steel,18895,41.819196419418,12.456164311714,Rome,Café,http://tour-pedia.org/api/getPlaceDetails?id=18895,http://tour-pedia.org/api/getReviewsByPlaceId?placeId=18895
,Caffè Viola,12474,41.819199,12.451547,Rome,Café,http://tour-pedia.org/api/getPlaceDetails?id=12474,http://tour-pedia.org/api/getReviewsByPlaceId?placeId=12474
Via camillo sabatini 171,Il moretto caffetteria tavola calda,5282,41.819389,12.437084,Rome,Café,http://tour-pedia.org/api/getPlaceDetails?id=5282,http://tour-pedia.org/api/getReviewsByPlaceId?placeId=5282
"Viale Citta' d'Europa, 604",BartarugaTorrino,16165,41.819463641968,12.450363636017,Rome,Café,http://tour-pedia.org/api/getPlaceDetails?id=16165,http://tour-pedia.org/api/getReviewsByPlaceId?placeId=16165
Via della Grande Muraglia 102,Marron Glacè,3058,41.819721536322,12.452570266186,Rome,Café,http://tour-pedia.org/api/getPlaceDetails?id=3058,http://tour-pedia.org/api/getReviewsByPlaceId?placeId=3058
via matteo bartoli,bar stella,9211,41.819796001372,12.487015075287,Rome,Café,http://tour-pedia.org/api/getPlaceDetails?id=9211,http://tour-pedia.org/api/getReviewsByPlaceId?placeId=9211
,Bar frumenti,15935,41.819799106552,12.480082723592,Rome,Café,http://tour-pedia.org/api/getPlaceDetails?id=15935,http://tour-pedia.org/api/getReviewsByPlaceId?placeId=15935
Via Canzon del Piave 42,Bar Di Luca,22155,41.820126,12.485319,Rome,Café,http://tour-pedia.org/api/getPlaceDetails?id=22155,http://tour-pedia.org/api/getReviewsByPlaceId?placeId=22155
,Bar Dazio,7954,41.820257352411,12.517717351975,Rome,Café,http://tour-pedia.org/api/getPlaceDetails?id=7954,http://tour-pedia.org/api/getReviewsByPlaceId?placeId=7954
"Via Rotterdam, 5",Caffè Belsito,3684,41.820885,12.452936,Rome,Café,http://tour-pedia.org/api/getPlaceDetails?id=3684,http://tour-pedia.org/api/getReviewsByPlaceId?placeId=3684
Via Lione 45,Gran Caffè Bonanni,8276,41.820958,12.454912,Rome,Café,http://tour-pedia.org/api/getPlaceDetails?id=8276,http://tour-pedia.org/api/getReviewsByPlaceId?placeId=8276
,...Quelli Di Via Helsinki,22517,41.8210045696,12.4599768114,Rome,Café,http://tour-pedia.org/api/getPlaceDetails?id=22517,http://tour-pedia.org/api/getReviewsByPlaceId?placeId=22517
,Caffè Starace,12981,41.82118979067,12.508178712763,Rome,Café,http://tour-pedia.org/api/getPlaceDetails?id=12981,http://tour-pedia.org/api/getReviewsByPlaceId?placeId=12981
"Via Amsterdam, 58",IACOBUCCI,16577,41.8218542997,12.447799444199,Rome,Café,http://tour-pedia.org/api/getPlaceDetails?id=16577,http://tour-pedia.org/api/getReviewsByPlaceId?placeId=16577
Via Ranuccio Bianchi Bandinelli,Oden Bar Tavola Calda,23492,41.821876525879,12.582337379456,Rome,Café,http://tour-pedia.org/api/getPlaceDetails?id=23492,http://tour-pedia.org/api/getReviewsByPlaceId?placeId=23492
,Tornatora,5296,41.822177885064,12.39472294084,Rome,Café,http://tour-pedia.org/api/getPlaceDetails?id=5296,http://tour-pedia.org/api/getReviewsByPlaceId?placeId=5296
Piazzale dell'Umanesimo,E-42 Cafè,8275,41.822224796536,12.470944759183,Rome,Café,http://tour-pedia.org/api/getPlaceDetails?id=8275,http://tour-pedia.org/api/getReviewsByPlaceId?placeId=8275
,Sala Break - Assist,9963,41.822684,12.494326,Rome,Café,http://tour-pedia.org/api/getPlaceDetails?id=9963,http://tour-pedia.org/api/getReviewsByPlaceId?placeId=9963
,"Gran Caffè ""La Piazzetta""",5517,41.82330294667,12.450179897026,Rome,Café,http://tour-pedia.org/api/getPlaceDetails?id=5517,http://tour-pedia.org/api/getReviewsByPlaceId?placeId=5517
,Bar Della Fonte,22261,41.823677732424,12.509937392055,Rome,Café,http://tour-pedia.org/api/getPlaceDetails?id=22261,http://tour-pedia.org/api/getReviewsByPlaceId?placeId=22261
,Noi di Via Helsinky,6054,41.823796456977,12.451993661993,Rome,Café,http://tour-pedia.org/api/getPlaceDetails?id=6054,http://tour-pedia.org/api/getReviewsByPlaceId?placeId=6054
"Via Veneziani, 56",Bar Gioja,9242,41.823807012001,12.408784685175,Rome,Café,http://tour-pedia.org/api/getPlaceDetails?id=9242,http://tour-pedia.org/api/getReviewsByPlaceId?placeId=9242
,Baretto di Ale&Marco,3722,41.824002,12.50105,Rome,Café,http://tour-pedia.org/api/getPlaceDetails?id=3722,http://tour-pedia.org/api/getReviewsByPlaceId?placeId=3722
,Caffè Del Colle,14286,41.824107511412,12.490677408637,Rome,Café,http://tour-pedia.org/api/getPlaceDetails?id=14286,http://tour-pedia.org/api/getReviewsByPlaceId?placeId=14286
,Non Solo Caffe,16080,41.824263481336,12.50347409864,Rome,Café,http://tour-pedia.org/api/getPlaceDetails?id=16080,http://tour-pedia.org/api/getReviewsByPlaceId?placeId=16080
,Gran Caffè Ennio,4503,41.824446478994,12.455447732812,Rome,Café,http://tour-pedia.org/api/getPlaceDetails?id=4503,http://tour-pedia.org/api/getReviewsByPlaceId?placeId=4503
Via Niobe 79,Bar Gasperuccio,10835,41.824616400809,12.617514471695,Rome,Café,http://tour-pedia.org/api/getPlaceDetails?id=10835,http://tour-pedia.org/api/getReviewsByPlaceId?placeId=10835
,Nice & Food,5160,41.825015,12.475368,Rome,Café,http://tour-pedia.org/api/getPlaceDetails?id=5160,http://tour-pedia.org/api/getReviewsByPlaceId?placeId=5160
"via Appia Nuova, 1206",Bar Capannelle,5133,41.825017053968,12.561096528801,Rome,Café,http://tour-pedia.org/api/getPlaceDetails?id=5133,http://tour-pedia.org/api/getReviewsByPlaceId?placeId=5133
Via Roberto Ferruzzi,Gran Caffè Coretti,12769,41.82502601147,12.50803996063,Rome,Café,http://tour-pedia.org/api/getPlaceDetails?id=12769,http://tour-pedia.org/api/getReviewsByPlaceId?placeId=12769
,Em.Gi.,6003,41.825134,12.475413,Rome,Café,http://tour-pedia.org/api/getPlaceDetails?id=6003,http://tour-pedia.org/api/getReviewsByPlaceId?placeId=6003
Via casale antonioni 15,A&E Home,1348,41.825185186074,12.643535630309,Rome,Café,http://tour-pedia.org/api/getPlaceDetails?id=1348,http://tour-pedia.org/api/getReviewsByPlaceId?placeId=1348
,Crazy Bar,6746,41.825419,12.500512,Rome,Café,http://tour-pedia.org/api/getPlaceDetails?id=6746,http://tour-pedia.org/api/getReviewsByPlaceId?placeId=6746
Piazza Douhet,Bar Douhet,4401,41.826131171635,12.478626871331,Rome,Café,http://tour-pedia.org/api/getPlaceDetails?id=4401,http://tour-pedia.org/api/getReviewsByPlaceId?placeId=4401
,Bar Ma.Gi,5963,41.826149441844,12.477098246484,Rome,Café,http://tour-pedia.org/api/getPlaceDetails?id=5963,http://tour-pedia.org/api/getReviewsByPlaceId?placeId=5963
Via Giunio Antonino Resti,Caffè Starace,12982,41.826176036292,12.507488979364,Rome,Café,http://tour-pedia.org/api/getPlaceDetails?id=12982,http://tour-pedia.org/api/getReviewsByPlaceId?placeId=12982
"Viale dell'Aeronautica, 10-12",Gran Caffé,2986,41.826197449726,12.474959326014,Rome,Café,http://tour-pedia.org/api/getPlaceDetails?id=2986,http://tour-pedia.org/api/getReviewsByPlaceId?placeId=2986
Ericsson Canteen,Ericsson Coffee Bar,12641,41.827002,12.606367,Rome,Café,http://tour-pedia.org/api/getPlaceDetails?id=12641,http://tour-pedia.org/api/getReviewsByPlaceId?placeId=12641
,Bar Terminal,11071,41.82708702638,12.481846569525,Rome,Café,http://tour-pedia.org/api/getPlaceDetails?id=11071,http://tour-pedia.org/api/getReviewsByPlaceId?placeId=11071
